[{"type":"Feature","geometry":{"type":"Point","coordinates":[-1.9774692838533774,53.729998275698456]},"properties":{"name":"CUSTOMISED SEWING SERVICES LTD","address":"UNIT 1D WHITE LEE BUSINESS PARK, MYTHOLMROYD, HEBDEN BRIDGE, WEST YORKSHIRE, HX7 5AD","postcode":"HX7 5AD"}},{"type":"Feature","geometry":{"type":"Point","coordinates":[-1.985896351746588,53.73114102845233]},"properties":{"name":"ECLIPSE CLIMBING LIMITED","address":"44 CALDENE AVENUE, HEBDEN BRIDGE, HX7 5AF","postcode":"HX7 5AF"}},{"type":"Feature","geometry":{"type":"Point","coordinates":[-1.9921865243011856,53.73262461887441]},"properties":{"name":"CANCAN PRODUCTIONS LIMITED","address":"NEWFIELD LINDEN ROAD, MYTHOLMROYD, HEBDEN BRIDGE, HX7 5AN","postcode":"HX7 5AN"}},{"type":"Feature","geometry":{"type":"Point","coordinates":[-1.9865638629642228,53.7293075399797]},"properties":{"name":"HENRY HELLIWELL LIMITED","address":"3 THRUSH HILL ROAD, MYTHOLMROYD, WEST YORKSHIRE, UNITED KINGDOM, HX7 5AQ","postcode":"HX7 5AQ"}},{"type":"Feature","geometry":{"type":"Point","coordinates":[-1.9877910747927992,53.73109629201528]},"properties":{"name":"CALDER VALLEY PLUMBING & HEATING LIMITED","address":"36 ERRINGDEN ROAD, HEBDEN BRIDGE, WEST YORKSHIRE, HX7 5AR","postcode":"HX7 5AR"}},{"type":"Feature","geometry":{"type":"Point","coordinates":[-1.987806726125748,53.72935261044642]},"properties":{"name":"GASWORKS TODMORDEN LIMITED","address":"18 STOCKS GARDENS, MYTHOLMROYD, HEBDEN BRIDGE, WEST YORKSHIRE, UNITED KINGDOM, HX7 5AY","postcode":"HX7 5AY"}},{"type":"Feature","geometry":{"type":"Point","coordinates":[-1.990762415788963,53.72903828617937]},"properties":{"name":"CATHY'S SOCIAL CARE LIMITED","address":"3 THROSTLE NEST, MYTHOLMROYD, HEBDEN BRIDGE, WEST YORKSHIRE, UNITED KINGDOM, HX7 5BG","postcode":"HX7 5BG"}},{"type":"Feature","geometry":{"type":"Point","coordinates":[-1.991201713609278,53.73028765835957]},"properties":{"name":"BABBLING BROOK NETWORK LTD","address":"5 NEST ESTATE, HEBDEN BRIDGE, WEST YORKSHIRE, HX7 5BH","postcode":"HX7 5BH"}},{"type":"Feature","geometry":{"type":"Point","coordinates":[-1.9870938545021055,53.730988363814824]},"properties":{"name":"CALDER FOOD HUB COMMUNITY INTEREST COMPANY","address":"6 THE DRIVE, HEBDEN BRIDGE, WEST YORKSHIRE, HX7 5BN","postcode":"HX7 5BN"}},{"type":"Feature","geometry":{"type":"Point","coordinates":[-1.9905193171315403,53.73172569680029]},"properties":{"name":"DISCOTOX LIMITED","address":"6 PADDY BRIDGE ROAD, HEBDEN BRIDGE, WEST YORKSHIRE, UNITED KINGDOM, HX7 5BP","postcode":"HX7 5BP"}},{"type":"Feature","geometry":{"type":"Point","coordinates":[-1.9853957750356994,53.73223751232687]},"properties":{"name":"BURNLEY ROAD ACADEMY","address":"BURNLEY ROAD ACADEMY BURNLEY ROAD, MYTHOLMROYD, HEBDEN BRIDGE, WEST YORKSHIRE, ENGLAND, HX7 5DE","postcode":"HX7 5DE"}},{"type":"Feature","geometry":{"type":"Point","coordinates":[-1.9831529739851523,53.73072722963006]},"properties":{"name":"BENCHMARK TRAVEL LIMITED","address":"7 - 9, BRIDGE END MYTHOLMROYD, HEBDEN BRIDGE, WEST YORKSHIRE, HX7 5DR","postcode":"HX7 5DR"}},{"type":"Feature","geometry":{"type":"Point","coordinates":[-1.982062155607544,53.72947773370883]},"properties":{"name":"GNR MOTOR ENGINEERS LTD","address":"UNIT 1, GEORGE STREET, MYTHOLMROYD, HEBDEN BRIDGE, WEST YORKSHIRE, HX7 5DT","postcode":"HX7 5DT"}},{"type":"Feature","geometry":{"type":"Point","coordinates":[-1.9826835451241882,53.72960365656185]},"properties":{"name":"ANSELL CONSTRUCTION LIMITED","address":"7 NEW ROAD, MYTHOLMROYD, HEBDEN BRIDGE, WEST YORKSHIRE, HX7 5DZ","postcode":"HX7 5DZ"}},{"type":"Feature","geometry":{"type":"Point","coordinates":[-1.9864886231958059,53.727572836092385]},"properties":{"name":"GIANT OAK TREE LIMITED","address":"18 THE BROOK, MYTHOLMROYD, HEBDEN BRIDGE, WEST YORKSHIRE, HX7 5ED","postcode":"HX7 5ED"}},{"type":"Feature","geometry":{"type":"Point","coordinates":[-1.9884286471076864,53.727555058739945]},"properties":{"name":"DELTA ORIGINS LIMITED","address":"34 CRAGG ROAD, HEBDEN BRIDGE, WEST YORKSHIRE, UNITED KINGDOM, HX7 5EG","postcode":"HX7 5EG"}},{"type":"Feature","geometry":{"type":"Point","coordinates":[-1.989096545008791,53.723528467043884]},"properties":{"name":"CM DIESELS LTD","address":"99 CRAGG ROAD, HEBDEN BRIDGE, WEST YORKSHIRE, UNITED KINGDOM, HX7 5FB","postcode":"HX7 5FB"}},{"type":"Feature","geometry":{"type":"Point","coordinates":[-1.9834879438479114,53.72682645765075]},"properties":{"name":"ADVERGAMER LIMITED","address":"BANK HOUSE, HALL BANK LANE, HEBDEN BRIDGE, WEST YORKSHIRE, ENGLAND, HX7 5HQ","postcode":"HX7 5HQ"}},{"type":"Feature","geometry":{"type":"Point","coordinates":[-1.9816233457956685,53.72774297263201]},"properties":{"name":"FLOWER OF LIFE LTD","address":"UNIT 2A ORCHARD BUSINESS PARK, SCOUT ROAD, HEBDEN BRIDGE, WEST YORKSHIRE, HX7 5HZ","postcode":"HX7 5HZ"}},{"type":"Feature","geometry":{"type":"Point","coordinates":[-1.9774100928831944,53.72728387059693]},"properties":{"name":"COLOUR (YORKSHIRE) LTD","address":"16 ALBERT STREET, HEBDEN BRIDGE, WEST YORKSHIRE, HX7 5JR","postcode":"HX7 5JR"}},{"type":"Feature","geometry":{"type":"Point","coordinates":[-1.9886415867173808,53.724705862503946]},"properties":{"name":"HOUSE OF PLANTS LIMITED(THE)","address":"HOO HOLE WORKS, CRAGG ROAD, MYTHOLMROYD, W YORKS, HX7 5JT","postcode":"HX7 5JT"}},{"type":"Feature","geometry":{"type":"Point","coordinates":[-1.9858667109107688,53.729091747905386]},"properties":{"name":"ASPIRE PUBLISHING LTD","address":"59 ELPHABOROUGH CLOSE, MYTHOLMROYD, HALIFAX, WEST YORKSHIRE, UNITED KINGDOM, HX7 5JX","postcode":"HX7 5JX"}},{"type":"Feature","geometry":{"type":"Point","coordinates":[-1.9826527316591624,53.73083501604093]},"properties":{"name":"HOBSON FAMILY BAKERS LTD","address":"17 BURNLEY ROAD, MYTHOLMROYD, HEBDEN BRIDGE, WEST YORKSHIRE, UNITED KINGDOM, HX7 5LH","postcode":"HX7 5LH"}},{"type":"Feature","geometry":{"type":"Point","coordinates":[-1.979878298764786,53.73210190425497]},"properties":{"name":"ECO FRIENDLY FURNISHINGS LIMITED","address":"MOUNT PLEASANT MILLS MIDGLEY ROAD, MYTHOLMROYD, HEBDEN BRIDGE, WEST YORKSHIRE, HX7 5LR","postcode":"HX7 5LR"}},{"type":"Feature","geometry":{"type":"Point","coordinates":[-1.9795291167049727,53.733243328714934]},"properties":{"name":"ASQUITH & SONS (MYTHOLMROYD) LIMITED","address":"40 BANKSFIELD CRESCENT, MYTHOLMROYD, HEBDEN BRIDGE, WEST YORKSHIRE, UNITED KINGDOM, HX7 5NG","postcode":"HX7 5NG"}},{"type":"Feature","geometry":{"type":"Point","coordinates":[-1.9726640827498363,53.7305365699728]},"properties":{"name":"ARTOME LTD","address":"BRIER HEY HOUSE, BRIER HEY, HEBDEN BRIDGE, WEST YORKSHIRE, HX7 5PF","postcode":"HX7 5PF"}},{"type":"Feature","geometry":{"type":"Point","coordinates":[-1.9759359983106042,53.73424933085027]},"properties":{"name":"D.E.A. (YORKSHIRE) LTD","address":"5 LEE CLOUGH DRIVE, MYTHOLMROYD, HEBDEN BRIDGE, W YORKS, HX7 5PP","postcode":"HX7 5PP"}},{"type":"Feature","geometry":{"type":"Point","coordinates":[-1.9773016638255685,53.731670022961296]},"properties":{"name":"FEET FIRST CHIROPODY & PODIATRY LIMITED","address":"4 LAUREATE PLACE, MYTHOLMROYD, HEBDEN BRIDGE, WEST YORKSHIRE, ENGLAND, HX7 5PS","postcode":"HX7 5PS"}},{"type":"Feature","geometry":{"type":"Point","coordinates":[-1.971890951138017,53.73068918979654]},"properties":{"name":"H.E.C. CONTRACTING LIMITED","address":"ELECTRIC HOUSE, MODERNA WAY, MYTHOLMROYD, HEBDEN BRIDGE, WEST YORKSHIRE, HX7 5PZ","postcode":"HX7 5PZ"}},{"type":"Feature","geometry":{"type":"Point","coordinates":[-1.9777727384549262,53.72940511985149]},"properties":{"name":"FACTORYLUX LTD","address":"OLD TROUSER FACTORY GREENHILL INDUSTRIAL MYTHOLMROYD, MYTHOLMROYD, HEBDEN BRIDGE, UNITED KINGDOM, HX7 5QF","postcode":"HX7 5QF"}},{"type":"Feature","geometry":{"type":"Point","coordinates":[-1.975756445799657,53.73011478995069]},"properties":{"name":"CALDENE BUSINESS PARK LIMITED","address":"BURNLEY ROAD, MYTHOLMROYD, HEBDEN BRIDGE, WEST YORKSHIRE, HX7 5QJ","postcode":"HX7 5QJ"}},{"type":"Feature","geometry":{"type":"Point","coordinates":[-1.9737381165879004,53.734015184870465]},"properties":{"name":"CRICKET ASYLUM LIMITED","address":"8 HULLETT CLOSE, HEBDEN BRIDGE, WEST YORKSHIRE, ENGLAND, HX7 5QP","postcode":"HX7 5QP"}},{"type":"Feature","geometry":{"type":"Point","coordinates":[-1.9734983308829965,53.729593009456]},"properties":{"name":"GB AIR CONTROL LIMITED","address":"UNIT 14A & B, MODERNA BUSINESS PARK, MODERNA WAY MYTHOLMROYD, HEBDEN BRIDGE, WEST YORKSHIRE, HX7 5QQ","postcode":"HX7 5QQ"}},{"type":"Feature","geometry":{"type":"Point","coordinates":[-1.9799064828742987,53.7366318867306]},"properties":{"name":"HEBDEN RENOVATION COMPANY LIMITED","address":"BANK COTTAGE, OFF RAW LANE, MYTHOLMROYD, HEBDEN BRIDGE, WEST YORKSHIRE, HX7 5RF","postcode":"HX7 5RF"}},{"type":"Feature","geometry":{"type":"Point","coordinates":[-1.989764298254235,53.7195737734822]},"properties":{"name":"GSM PROJECTS LIMITED","address":"UNIT 1C DEAN HAY FARM, CRAGG VALE, HEBDEN BRIDGE, WEST YORKSHIRE, ENGLAND, HX7 5RU","postcode":"HX7 5RU"}},{"type":"Feature","geometry":{"type":"Point","coordinates":[-1.986640773715669,53.72568535962798]},"properties":{"name":"H & R PLANT SERVICES (TODMORDEN) LIMITED","address":"UNIT 10D TOPLAND COUNTRY BUSINESS PARK, CRAGG VALE, HEBDEN BRIDGE, WEST YORKSHIRE, HX7 5RW","postcode":"HX7 5RW"}},{"type":"Feature","geometry":{"type":"Point","coordinates":[-1.9993717085858376,53.710756881402574]},"properties":{"name":"HOVERFLIES LIMITED","address":"UPPER LUMB BARN UPPER LUMB LANE, CRAGG VALE, HEBDEN BRIDGE, WEST YORKSHIRE, UNITED KINGDOM, HX7 5SH","postcode":"HX7 5SH"}},{"type":"Feature","geometry":{"type":"Point","coordinates":[-1.9957055924784366,53.70793455423652]},"properties":{"name":"CRAGG PROPERTIES LTD","address":"CASTLE HALL UNIT, CRAGG VALE, HEBDEN BRIDGE, WEST YORKSHIRE, HX7 5SS","postcode":"HX7 5SS"}},{"type":"Feature","geometry":{"type":"Point","coordinates":[-1.9998262077821858,53.705328075082356]},"properties":{"name":"IAN LUMB GASHOLDERS LIMITED","address":"STONE HAVEN, CHURCH BANK, CRAGG VALE, HEBDEN BRIDGE, HX7 5TF","postcode":"HX7 5TF"}},{"type":"Feature","geometry":{"type":"Point","coordinates":[-1.9994323509409775,53.70509438425548]},"properties":{"name":"ELIXIR SYSTEMS LIMITED","address":"THE OLD STABLES, BLACKSTONE EDGE ROAD CRAGG VALE, NR HEBDEN BRIDGE, WEST YORKSHIRE, HX7 5TG","postcode":"HX7 5TG"}},{"type":"Feature","geometry":{"type":"Point","coordinates":[-1.9963729413539724,53.69818248814034]},"properties":{"name":"ELIZABETH MCWHIRTER LIMITED","address":"3 LITTLEWOOD, CRAGG VALE, HEBDEN BRIDGE, WEST YORKSHIRE, HX7 5TL","postcode":"HX7 5TL"}},{"type":"Feature","geometry":{"type":"Point","coordinates":[-1.9979784913601677,53.69599841238355]},"properties":{"name":"CRAGG VALE COMMUNITY LIMITED","address":"2 GREEN BANK, HEBDEN BRIDGE, WEST YORKSHIRE, HX7 5TP","postcode":"HX7 5TP"}},{"type":"Feature","geometry":{"type":"Point","coordinates":[-1.992374853877378,53.69580944877072]},"properties":{"name":"DISCOVERING LIFE LIMITED","address":"SUITE 10 CRAGGS OFFICE SUITES THE CRAGGS COUNTRY BUSINESS PARK, NEW ROAD, CRAGG VALE, HEBDEN BRIDGE, WEST YORKSHIRE, HX7 5TT","postcode":"HX7 5TT"}},{"type":"Feature","geometry":{"type":"Point","coordinates":[-1.9869351662709698,53.70450048635986]},"properties":{"name":"CRAGG VALE CONSULTANCY LIMITED","address":"COB CASTLE COPPY NOOK LANE CRAGG VALE, HEBDEN BRIDGE, WEST YORKSHIRE, HX7 5TU","postcode":"HX7 5TU"}},{"type":"Feature","geometry":{"type":"Point","coordinates":[-1.9824954371836372,53.707762607755036]},"properties":{"name":"CRAGG VALE CONSULTING (CVC) LIMITED","address":"SWAT FARM COPPY NOOK LANE, CRAGG VALE, HEBDEN BRIDGE, HX7 5TX","postcode":"HX7 5TX"}},{"type":"Feature","geometry":{"type":"Point","coordinates":[-2.016988950532115,53.74137797303183]},"properties":{"name":"HANNAH NUNN LIMITED","address":"26 MARKET STREET, HEBDEN BRIDGE, WEST YORKSHIRE, HX7 6AA","postcode":"HX7 6AA"}},{"type":"Feature","geometry":{"type":"Point","coordinates":[-2.024751777539151,53.74172713789646]},"properties":{"name":"CORYLUS CONSULTING LTD.","address":"20 LONGSTAFF COURT, HEBDEN BRIDGE, UNITED KINGDOM, HX7 6AB","postcode":"HX7 6AB"}},{"type":"Feature","geometry":{"type":"Point","coordinates":[-2.0159125384431476,53.741494967656095]},"properties":{"name":"HOLMES TEC LIMITED","address":"BARCLAYS BANK CHAMBERS, MARKET STREET, HEBDEN BRIDGE, WEST YORKSHIRE, HX7 6AD","postcode":"HX7 6AD"}},{"type":"Feature","geometry":{"type":"Point","coordinates":[-2.017155844486288,53.741665566185944]},"properties":{"name":"HRR LIMITED","address":"5 THE MILL, BRUNSWICK STREET, HEBDEN BRIDGE, WEST YORKSHIRE, UNITED KINGDOM, HX7 6AF","postcode":"HX7 6AF"}},{"type":"Feature","geometry":{"type":"Point","coordinates":[-2.0160338922960266,53.7416567359426]},"properties":{"name":"GULLSEDGE LTD","address":"32 HANGINGROYD ROAD, HEBDEN BRIDGE, WEST YORKSHIRE, UNITED KINGDOM, HX7 6AH","postcode":"HX7 6AH"}},{"type":"Feature","geometry":{"type":"Point","coordinates":[-2.0198393472625673,53.74150336143966]},"properties":{"name":"ILC LEARNING LIMITED","address":"95 BRIDGE LANES, BRIDGE LANES, HEBDEN BRIDGE, WEST YORKSHIRE, HX7 6AT","postcode":"HX7 6AT"}},{"type":"Feature","geometry":{"type":"Point","coordinates":[-2.0174441995443577,53.74234861494668]},"properties":{"name":"CLAIRE DONNELLY LIMITED","address":"18 ALBION TERRACE, HEPTONSTALL ROAD, HEBDEN BRIDGE, WEST YORKSHIRE, HX7 6BE","postcode":"HX7 6BE"}},{"type":"Feature","geometry":{"type":"Point","coordinates":[-2.0289073515773137,53.74364065086954]},"properties":{"name":"BRIC IO SERVICES LLP","address":"9 GLEN VIEW, HEBDEN BRIDGE, WEST YORKSHIRE, UNITED KINGDOM, HX7 6DB","postcode":"HX7 6DB"}},{"type":"Feature","geometry":{"type":"Point","coordinates":[-2.027468483185164,53.745977881657545]},"properties":{"name":"H D SALVAGE LIMITED","address":"18 EAVES AVENUE, HEBDEN BRIDGE, WEST YORKSHIRE, HX7 6DJ","postcode":"HX7 6DJ"}},{"type":"Feature","geometry":{"type":"Point","coordinates":[-2.026678499775201,53.74362319649387]},"properties":{"name":"GIBBONS ASSOCIATES LTD","address":"HILL BRINK, MYTHOLM BANK, HEBDEN BRIDGE, HX7 6DL","postcode":"HX7 6DL"}},{"type":"Feature","geometry":{"type":"Point","coordinates":[-2.0236455141826095,53.74265313173259]},"properties":{"name":"HEBDEN DATA SERVICES LIMITED","address":"14 COLDEN CLOSE, HEBDEN BRIDGE, WEST YORKSHIRE, UNITED KINGDOM, HX7 6DY","postcode":"HX7 6DY"}},{"type":"Feature","geometry":{"type":"Point","coordinates":[-2.0140932859068172,53.74183674488633]},"properties":{"name":"HEBBLE HOUSE LTD","address":"HEBBLE HOUSE, OLDGATE, HEBDEN BRIDGE, UNITED KINGDOM, HX7 6EN","postcode":"HX7 6EN"}},{"type":"Feature","geometry":{"type":"Point","coordinates":[-2.01594275752352,53.74122532235621]},"properties":{"name":"ELEMENT JEWELLERY LTD.","address":"25 MARKET STREET, HEBDEN BRIDGE, WEST YORKSHIRE, HX7 6EU","postcode":"HX7 6EU"}},{"type":"Feature","geometry":{"type":"Point","coordinates":[-2.0157303899745136,53.740937733568686]},"properties":{"name":"HOUR CAR (UN) LIMITED","address":"SALEM COMMUNITY CENTRE, CENTRAL STREET, HEBDEN BRIDGE, WEST YORKSHIRE, HX7 6HB","postcode":"HX7 6HB"}},{"type":"Feature","geometry":{"type":"Point","coordinates":[-2.016336222005762,53.73937373181783]},"properties":{"name":"HALL WAY PARTNERS LIMITED","address":"3 STANLEIGH CROFT, PALACE HOUSE ROAD, HEBDEN BRIDGE, WEST YORKSHIRE, HX7 6HD","postcode":"HX7 6HD"}},{"type":"Feature","geometry":{"type":"Point","coordinates":[-2.0172614924098684,53.74050609349313]},"properties":{"name":"I Q EQUITY LIMITED","address":"BEEHIVE MILLS, HEBBLE END, HEBDEN BRIDGE, WEST YORKSHIRE, UNITED KINGDOM, HX7 6HJ","postcode":"HX7 6HJ"}},{"type":"Feature","geometry":{"type":"Point","coordinates":[-2.013197494759691,53.73789109803152]},"properties":{"name":"HEBDEN BRIDGE PATTERNS LIMITED","address":"PALACE HOUSE ROAD, HEBDEN BRIDGE, WEST YORKSHIRE, HX7 6HW","postcode":"HX7 6HW"}},{"type":"Feature","geometry":{"type":"Point","coordinates":[-2.0209611104813314,53.7411436464255]},"properties":{"name":"HALIFAX WIREFORM CO.LIMITED","address":"CALDER MILL, HEBDEN BRIDGE, WEST YORKSHIRE, HX7 6LJ","postcode":"HX7 6LJ"}},{"type":"Feature","geometry":{"type":"Point","coordinates":[-2.022462072422242,53.74113438320517]},"properties":{"name":"HEBDENSOFT LIMITED","address":"15 CAMBRIDGE STREET, HEBDEN BRIDGE, WEST YORKSHIRE, ENGLAND, HX7 6LN","postcode":"HX7 6LN"}},{"type":"Feature","geometry":{"type":"Point","coordinates":[-2.023250443789313,53.74110726701657]},"properties":{"name":"IAN APPLEBY LTD","address":"11 TRINITY STREET, HEBDEN BRIDGE, HALIFAX, HX7 6LP","postcode":"HX7 6LP"}},{"type":"Feature","geometry":{"type":"Point","coordinates":[-2.0247508114978037,53.740100302600716]},"properties":{"name":"COMPULINK SOLUTIONS LIMITED","address":"9 STUBBING BRINK, HEBDEN BRIDGE, WEST YORKSHIRE, HX7 6LR","postcode":"HX7 6LR"}},{"type":"Feature","geometry":{"type":"Point","coordinates":[-2.0259643274147003,53.74113366802153]},"properties":{"name":"HAVELOCK PLACE MANAGEMENT (WHITBY) LIMITED","address":"HILLCROFT, STUBBING DRIVE, HEBDEN BRIDGE, WEST YORKSHIRE, WEST YORKSHIRE, HX7 6LS","postcode":"HX7 6LS"}},{"type":"Feature","geometry":{"type":"Point","coordinates":[-2.0284360135026756,53.74171732433812]},"properties":{"name":"FROD DIGITAL DEVELOPMENT LTD","address":"EAST VIEW, SAVILE ROAD, HEBDEN BRIDGE, WEST YORKSHIRE, HX7 6LZ","postcode":"HX7 6LZ"}},{"type":"Feature","geometry":{"type":"Point","coordinates":[-2.02939105426679,53.741528343011886]},"properties":{"name":"ELLIVIEW LIMITED","address":"WOODENTOPS, SAVILE ROAD, HEBDEN BRIDGE, WEST YORKSHIRE, ENGLAND, HX7 6ND","postcode":"HX7 6ND"}},{"type":"Feature","geometry":{"type":"Point","coordinates":[-2.0311636996593845,53.73986510359082]},"properties":{"name":"CN PROPERTY LLP","address":"CALDERSIDE NURSERIES, OAKVILLE ROAD, HEBDEN BRIDGE, WEST YORKSHIRE, HX7 6NG","postcode":"HX7 6NG"}},{"type":"Feature","geometry":{"type":"Point","coordinates":[-2.033541964821279,53.7373927440174]},"properties":{"name":"HEIGHT SAFETY FACILITIES LTD","address":"8 THISTLE BOTTOM, HEBDEN BRIDGE, WEST YORKSHIRE, UNITED KINGDOM, HX7 6NH","postcode":"HX7 6NH"}},{"type":"Feature","geometry":{"type":"Point","coordinates":[-2.0415609690356713,53.73678801480444]},"properties":{"name":"DR LINDA PATTERSON LIMITED","address":"KNOTT HALL, CHARLESTOWN, HEBDEN BRIDGE, WEST YORKSHIRE, ENGLAND, HX7 6PE","postcode":"HX7 6PE"}},{"type":"Feature","geometry":{"type":"Point","coordinates":[-2.0364823403822077,53.73664587066636]},"properties":{"name":"BROTHERS DAY FILMS LTD","address":"3 INGLE DENE, HEBDEN BRIDGE, HX7 6PQ","postcode":"HX7 6PQ"}},{"type":"Feature","geometry":{"type":"Point","coordinates":[-2.0485008181154503,53.73393618014821]},"properties":{"name":"C.V.S.(HEBDEN BRIDGE)LIMITED","address":"ORCHARD COTTAGE, UNDERBANK, HEBDEN BRIDGE, WEST YORKSHIRE, HX7 6PR","postcode":"HX7 6PR"}},{"type":"Feature","geometry":{"type":"Point","coordinates":[-2.0469113098888476,53.73586025928673]},"properties":{"name":"HEBDEN BRIDGE CHIROPRACTIC LTD","address":"POTBALL, JUMBLE HOLE ROAD, HEBDEN BRIDGE, WEST YORKSHIRE, HX7 6PS","postcode":"HX7 6PS"}},{"type":"Feature","geometry":{"type":"Point","coordinates":[-2.045861997016686,53.732831694197806]},"properties":{"name":"ECO HEAT AND POWER LIMITED","address":"2 SANDBED, HEBDEN BRIDGE, WEST YORKSHIRE, HX7 6PT","postcode":"HX7 6PT"}},{"type":"Feature","geometry":{"type":"Point","coordinates":[-2.013125541996418,53.74999799147439]},"properties":{"name":"HEBDEN MILLS LIMITED","address":"BROOK LEIGH, LEE MILL ROAD, HEBDEN BRIDGE, WEST YORKSHIRE, HX7 7AB","postcode":"HX7 7AB"}},{"type":"Feature","geometry":{"type":"Point","coordinates":[-2.0120951335779913,53.75264058163354]},"properties":{"name":"DR J REDFERN LIMITED","address":"VALHALLA, LEE MILL ROAD, HEBDEN BRIDGE, WEST YORKSHIRE, ENGLAND, HX7 7AE","postcode":"HX7 7AE"}},{"type":"Feature","geometry":{"type":"Point","coordinates":[-2.050177376770133,53.7668586324518]},"properties":{"name":"CRAGG ENGINEERING SERVICES LIMITED","address":"ACRE LANE COTTAGE, WIDDOP ROAD, HEBDEN BRIDGE, WEST YORKSHIRE, HX7 7AZ","postcode":"HX7 7AZ"}},{"type":"Feature","geometry":{"type":"Point","coordinates":[-2.0126531747259326,53.74260089205958]},"properties":{"name":"FAST LANE (YORKSHIRE) LIMITED","address":"SUITE ONE HAWKSTONE HOUSE, VALLEY ROAD, HEBDEN BRIDGE, WEST YORKSHIRE, HX7 7BL","postcode":"HX7 7BL"}},{"type":"Feature","geometry":{"type":"Point","coordinates":[-2.0124106345069195,53.74276270264385]},"properties":{"name":"GREYFRIARS ADVISORY LIMITED","address":"5-6 WRAGLEY HOUSE, VALLEY ROAD, HEBDEN BRIDGE, WEST YORKSHIRE, HX7 7BN","postcode":"HX7 7BN"}},{"type":"Feature","geometry":{"type":"Point","coordinates":[-2.01439695758166,53.743104021615004]},"properties":{"name":"GEANT4 ASSOCIATES INTERNATIONAL LTD","address":"9 ROYD TERRACE, HEBDEN BRIDGE, HX7 7BT","postcode":"HX7 7BT"}},{"type":"Feature","geometry":{"type":"Point","coordinates":[-2.013123173573249,53.74254691225967]},"properties":{"name":"HEBDEN BRIDGE COMMUNITY ASSOCIATION LTD","address":"HEBDEN BRIDGE TOWN HALL, ST. GEORGES STREET, HEBDEN BRIDGE, WEST YORKSHIRE, HX7 7BY","postcode":"HX7 7BY"}},{"type":"Feature","geometry":{"type":"Point","coordinates":[-2.0115466577174774,53.74365260661983]},"properties":{"name":"H.O.H. ASSETS LIMITED","address":"UNIT 6 PENNINE INDUSTRIAL ESTATE, VALLEY ROAD, HEBDEN BRIDGE, WEST YORKSHIRE, HX7 7BZ","postcode":"HX7 7BZ"}},{"type":"Feature","geometry":{"type":"Point","coordinates":[-2.0127141902375287,53.743796294494366]},"properties":{"name":"HODGSON HEATING LIMITED","address":"BURLEES HOUSE, HANGINGROYD LANE, HEBDEN BRIDGE, WEST YORKSHIRE, HX7 7DD","postcode":"HX7 7DD"}},{"type":"Feature","geometry":{"type":"Point","coordinates":[-2.014078779256867,53.743760186841264]},"properties":{"name":"HEBDEN BRIDGE PIANO FESTIVAL","address":"3 REGENT PLACE, HEBDEN BRIDGE, WEST YORKSHIRE, HX7 7DF","postcode":"HX7 7DF"}},{"type":"Feature","geometry":{"type":"Point","coordinates":[-2.0131994162710893,53.74390409742071]},"properties":{"name":"BLUEMOOSE BOOKS LTD","address":"25 SACKVILLE STREET, HEBDEN BRIDGE, WEST YORKSHIRE, HX7 7DJ","postcode":"HX7 7DJ"}},{"type":"Feature","geometry":{"type":"Point","coordinates":[-2.0131692235706775,53.74431755048287]},"properties":{"name":"HEBDEN ROYD DEVELOPMENT LIMITED LIABILITY PARTNERSHIP","address":"LINDEN MILL, LINDEN ROAD, HEBDEN BRIDGE, WEST YORKSHIRE, HX7 7DP","postcode":"HX7 7DP"}},{"type":"Feature","geometry":{"type":"Point","coordinates":[-2.014427783123125,53.74454210373859]},"properties":{"name":"CAUSEWAY ASSOCIATES LTD","address":"4 MAYFIELD ROAD, HEBDEN BRIDGE, HALIFAX, WEST YORKSHIRE, UNITED KINGDOM, HX7 7DT","postcode":"HX7 7DT"}},{"type":"Feature","geometry":{"type":"Point","coordinates":[-2.015262237710746,53.74594413198004]},"properties":{"name":"HOTTIES THERMAL PACKS LIMITED","address":"1 SLATER BANK, HEBDEN BRIDGE, WEST YORKSHIRE, HX7 7DY","postcode":"HX7 7DY"}},{"type":"Feature","geometry":{"type":"Point","coordinates":[-2.015854289866005,53.747759636360854]},"properties":{"name":"HOLLINS MANAGEMENT LIMITED","address":"12 HOLLINS, HEBDEN BRIDGE, WEST YORKSHIRE, HX7 7DZ","postcode":"HX7 7DZ"}},{"type":"Feature","geometry":{"type":"Point","coordinates":[-2.0151102204933813,53.744883563505844]},"properties":{"name":"FROZENSHEEP LTD","address":"12 ESKDALE MOUNT, HEBDEN BRIDGE, WEST YORKSHIRE, HX7 7EB","postcode":"HX7 7EB"}},{"type":"Feature","geometry":{"type":"Point","coordinates":[-2.063978705757955,53.74444489634139]},"properties":{"name":"FRANKEL ESTATES LIMITED","address":"3 MOOR HOUSE VIEW, BLACKSHAW HEAD, HEBDEN BRIDGE, WEST YORKSHIRE, UNITED KINGDOM, HX7 7EL","postcode":"HX7 7EL"}},{"type":"Feature","geometry":{"type":"Point","coordinates":[-2.0580149934702545,53.75189003444446]},"properties":{"name":"GREAT ROCK LTD.","address":"2 LOWER SMITHY, COLDEN, HEBDEN BRIDGE, WEST YORKSHIRE, HX7 7HP","postcode":"HX7 7HP"}},{"type":"Feature","geometry":{"type":"Point","coordinates":[-2.058831426264547,53.75011899335411]},"properties":{"name":"DOOLALLY INNS LTD","address":"NEW DELIGHT INN, BLACKSHAW HEAD, HEBDEN BRIDGE, WEST YORKSHIRE, ENGLAND, HX7 7HT","postcode":"HX7 7HT"}},{"type":"Feature","geometry":{"type":"Point","coordinates":[-2.059285281067018,53.74935478626161]},"properties":{"name":"HEBDEN BRIDGE CAMPING COMPANY LIMITED","address":"7 HIGH STREET, BLACKSHAW HEAD, HEBDEN BRIDGE, WEST YORKSHIRE, UNITED KINGDOM, HX7 7HY","postcode":"HX7 7HY"}},{"type":"Feature","geometry":{"type":"Point","coordinates":[-2.0626211967017785,53.74920927416747]},"properties":{"name":"COLDEN INTERIMS LIMITED","address":"SYCAMORE HOUSE 1 NEW SHAW LANE, BLACKSHAW HEAD, HEBDEN BRIDGE, WEST YORKSHIRE, HX7 7HZ","postcode":"HX7 7HZ"}},{"type":"Feature","geometry":{"type":"Point","coordinates":[-2.0824832762809447,53.747678231386814]},"properties":{"name":"HARTLEY ACCOMODATION LTD","address":"MOORHALL FARM COTTAGE MOORHALL FARM COTTAGE, BLACKSHAW HEAD, HEBDEN BRIDGE, UNITED KINGDOM, HX7 7JA","postcode":"HX7 7JA"}},{"type":"Feature","geometry":{"type":"Point","coordinates":[-2.082173142526421,53.74417311088253]},"properties":{"name":"HEBDEN BRIDGE BREWING COMPANY LIMITED","address":"SMITHY FARM LONG CAUSEWAY, BLACKSHAW HEAD, HEBDEN BRIDGE, WEST YORKSHIRE, UNITED KINGDOM, HX7 7JB","postcode":"HX7 7JB"}},{"type":"Feature","geometry":{"type":"Point","coordinates":[-2.0384597878329496,53.74392556270837]},"properties":{"name":"GHA 2011 LIMITED","address":"GREEN HOUSE FARM, NEW LANE, BLACKSHAWHEAD, HEBDEN BRIDGE, WEST YORKSHIRE, HX7 7JR","postcode":"HX7 7JR"}},{"type":"Feature","geometry":{"type":"Point","coordinates":[-2.0672384473629806,53.74432626044409]},"properties":{"name":"ANDERSON COMPUTER CONSULTANTS LIMITED","address":"6 PENNINE VIEW, BLACKSHAW HEAD, HEBDEN BRIDGE, HX7 7JS","postcode":"HX7 7JS"}},{"type":"Feature","geometry":{"type":"Point","coordinates":[-2.0492783389826768,53.73770185416635]},"properties":{"name":"CLARUS PROPERTY INVESTMENTS LIMITED","address":"4-5 WINTERS COTTAGES, BLACKSHAW HEAD, HEBDEN BRIDGE, WEST YORKSHIRE, HX7 7JU","postcode":"HX7 7JU"}},{"type":"Feature","geometry":{"type":"Point","coordinates":[-2.023223318552731,53.74684163979427]},"properties":{"name":"HARDMAN INFORMATION TECHNOLOGY CONSULTING LTD","address":"25 BECKETTS CLOSE, HEPTONSTALL, HEBDEN BRIDGE, WEST YORKSHIRE, ENGLAND, HX7 7LJ","postcode":"HX7 7LJ"}},{"type":"Feature","geometry":{"type":"Point","coordinates":[-2.0203727090190373,53.74703990114291]},"properties":{"name":"DAWSON ACCESS LTD","address":"36 LONGFIELD, LONGFIELD, HEBDEN BRIDGE, WEST YORKSHIRE, ENGLAND, HX7 7LR","postcode":"HX7 7LR"}},{"type":"Feature","geometry":{"type":"Point","coordinates":[-2.0203264937877607,53.74555688361059]},"properties":{"name":"HEPTONSTALL ALLOTMENT & GARDEN SOCIETY LIMITED","address":"HEPTONSTALL SOCIAL & BOWLING CLUB ACRE LANE, HEPTONSTALL, HEBDEN BRIDGE, WEST YORKSHIRE, HX7 7LT","postcode":"HX7 7LT"}},{"type":"Feature","geometry":{"type":"Point","coordinates":[-2.021889413383721,53.74773170887421]},"properties":{"name":"D P SQUARED LIMITED","address":"22 HEPTON DRIVE, HEPTONSTALL, HEBDEN BRIDGE, WEST YORKSHIRE, HX7 7LU","postcode":"HX7 7LU"}},{"type":"Feature","geometry":{"type":"Point","coordinates":[-2.0210105980395414,53.74907108453925]},"properties":{"name":"CPPS POLICY EXCHANGE LTD","address":"64 TOWNGATE, HEPTONSTALL, HEBDEN BRIDGE, WEST YORKSHIRE, HX7 7NB","postcode":"HX7 7NB"}},{"type":"Feature","geometry":{"type":"Point","coordinates":[-2.0210865964236526,53.74942160414975]},"properties":{"name":"AJPOPE SOCIAL WORK LIMITED","address":"2 SWAN FOLD, HEPTONSTALL, HEBDON BRIDGE, ENGLAND, HX7 7NP","postcode":"HX7 7NP"}},{"type":"Feature","geometry":{"type":"Point","coordinates":[-2.0225421123626806,53.74895395857703]},"properties":{"name":"HARD ACT THEATRE COMPANY LTD","address":"28 CHURCH STREET, HEPTONSTALL, HEBDEN BRIDGE, HX7 7NS","postcode":"HX7 7NS"}},{"type":"Feature","geometry":{"type":"Point","coordinates":[-2.020783684047249,53.75016766403598]},"properties":{"name":"CO-OP CULTURE","address":"1 NORTHFIELD, HEBDEN BRIDGE, WEST YORKSHIRE, HX7 7NW","postcode":"HX7 7NW"}},{"type":"Feature","geometry":{"type":"Point","coordinates":[-2.03749674280108,53.75211396622074]},"properties":{"name":"GREENS PEDIGREE CHICKS LIMITED","address":"PINFOLD FARM, HEPTONSTALL, HEBDEN BRIDGE, HX7 7PD","postcode":"HX7 7PD"}},{"type":"Feature","geometry":{"type":"Point","coordinates":[-2.0743503787755673,53.761866669277076]},"properties":{"name":"HEATH AND HERB LIMITED","address":"POPPLES CLOSE FARM, EDGE LANE HEPTONSTALL, HEBDEN BRIDGE, UNITED KINGDOM, HX7 7PG","postcode":"HX7 7PG"}},{"type":"Feature","geometry":{"type":"Point","coordinates":[-2.059081113785978,53.75512519989271]},"properties":{"name":"1000FEETUP LIMITED","address":"1 BROADSTONE COTTAGE, HEBDEN BRIDGE, WEST YORKSHIRE, HX7 7PQ","postcode":"HX7 7PQ"}},{"type":"Feature","geometry":{"type":"Point","coordinates":[-2.0111666982721035,53.74031808076155]},"properties":{"name":"HEBDEN BRIDGE DENTAL CARE LTD","address":"16 NEW ROAD, HEBDEN BRIDGE, WEST YORKSHIRE, HX7 8AD","postcode":"HX7 8AD"}},{"type":"Feature","geometry":{"type":"Point","coordinates":[-2.01225827579014,53.740273031488876]},"properties":{"name":"HEBDEN VALLEY IT SOLUTIONS LIMITED","address":"4 BUTLERS WHARF, NEW ROAD, HEBDEN BRIDGE, ENGLAND, HX7 8AF","postcode":"HX7 8AF"}},{"type":"Feature","geometry":{"type":"Point","coordinates":[-2.011864310555104,53.7410370555346]},"properties":{"name":"EVANMORE LTD","address":"THE OLD POLICE STATION, HOPE STREET, HEBDEN BRIDGE, WEST YORKSHIRE, ENGLAND, HX7 8AG","postcode":"HX7 8AG"}},{"type":"Feature","geometry":{"type":"Point","coordinates":[-2.0115006339867754,53.74172917089838]},"properties":{"name":"GARETH CONNOR LIMITED","address":"C/O BACK TO BASICS MANAGEMENT 4 GARDEN STREET, HEBDEN BRIDGE, WEST YORKSHIRE, UNITED KINGDOM, HX7 8AQ","postcode":"HX7 8AQ"}},{"type":"Feature","geometry":{"type":"Point","coordinates":[-2.0091047124379413,53.73990480970172]},"properties":{"name":"EQUINE SOLUTIONS UK LIMITED","address":"2 MACHPELAH, HEBDEN BRIDGE, WEST YORKSHIRE, HX7 8AU","postcode":"HX7 8AU"}},{"type":"Feature","geometry":{"type":"Point","coordinates":[-2.0090445298110735,53.74199003993671]},"properties":{"name":"CALDER VALLEY COMMERCIAL SERVICES LIMITED","address":"10 BLENHEIM STREET, HEBDEN BRIDGE, WEST YORKSHIRE, HX7 8BU","postcode":"HX7 8BU"}},{"type":"Feature","geometry":{"type":"Point","coordinates":[-2.0097873295936024,53.7414956377582]},"properties":{"name":"DARIO'S PIZZERIA LTD","address":"BEECHMOUNT, MARLBOROUGH ROAD, HEBDEN BRIDGE, WEST YORKSHIRE, HX7 8BW","postcode":"HX7 8BW"}},{"type":"Feature","geometry":{"type":"Point","coordinates":[-2.010075636801296,53.74247530955249]},"properties":{"name":"HEBDEN MANAGEMENT SOLUTIONS LIMITED","address":"9 CLIFFE STREET, HEBDEN BRIDGE, WEST YORKSHIRE, HX7 8BY","postcode":"HX7 8BY"}},{"type":"Feature","geometry":{"type":"Point","coordinates":[-2.0090297786740225,53.743850564982395]},"properties":{"name":"HAPPY VALLEY DECORATING LIMITED","address":"9 EDWARD STREET, HEBDEN BRIDGE, WEST YORKSHIRE, HX7 8DF","postcode":"HX7 8DF"}},{"type":"Feature","geometry":{"type":"Point","coordinates":[-2.008847800495659,53.743706770362465]},"properties":{"name":"CALDERDALE SUSTAINABILITY FORUM LIMITED","address":"21 CHAPEL AVENUE, HEBDEN BRIDGE, WEST YORKSHIRE, HX7 8DG","postcode":"HX7 8DG"}},{"type":"Feature","geometry":{"type":"Point","coordinates":[-2.0051328163349385,53.74180153102207]},"properties":{"name":"ARB CONSULTING ASSOCIATES LTD","address":"2 WADSWORTH LANE, HEBDEN BRIDGE, HALIFAX, WEST YORKSHIRE, HX7 8DL","postcode":"HX7 8DL"}},{"type":"Feature","geometry":{"type":"Point","coordinates":[-2.0106669851244185,53.74262805374647]},"properties":{"name":"AVARICE (MANAGEMENT) LIMITED","address":"4 ST JOHNS CLOSE, HEBDEN BRIDGE, WEST YORKSHIRE, HX7 8DP","postcode":"HX7 8DP"}},{"type":"Feature","geometry":{"type":"Point","coordinates":[-2.00877169836766,53.74234958238393]},"properties":{"name":"BIRCHCLIFFE CONSULTANCY LIMITED","address":"WOODSIDE, BIRCHCLIFFE ROAD, HEBDEN BRIDGE, WEST YORKSHIRE, HX7 8DQ","postcode":"HX7 8DQ"}},{"type":"Feature","geometry":{"type":"Point","coordinates":[-2.010424129264993,53.74157647503399]},"properties":{"name":"BUSINESS TECHNOLOGIST LIMITED","address":"APARTMENT 3 ZION BAPTIST CHAPEL, OSBORNE STREET, HEBDEN BRIDGE, WEST YORKSHIRE, ENGLAND, HX7 8DT","postcode":"HX7 8DT"}},{"type":"Feature","geometry":{"type":"Point","coordinates":[-2.0026160705832896,53.742772326114626]},"properties":{"name":"DIAMOND DOGS DOG WALKING LIMITED","address":"6 MANOR DRIVE, HEBDON BRIDGE, UNITED KINGDOM, HX7 8DW","postcode":"HX7 8DW"}},{"type":"Feature","geometry":{"type":"Point","coordinates":[-2.012819653104936,53.741630165747225]},"properties":{"name":"DAISY AND SAM LTD.","address":"7 CROWN STREET, HEBDEN BRIDGE, WEST YORKSHIRE, HX7 8EH","postcode":"HX7 8EH"}},{"type":"Feature","geometry":{"type":"Point","coordinates":[-2.012258826159596,53.74212456783581]},"properties":{"name":"IL MULINO (HEBDEN BRIDGE) LIMITED","address":"BRIDGE MILL, ST GEORGE'S SQUARE, HEBDEN BRIDGE, WEST YORKSHRIE, HX7 8ET","postcode":"HX7 8ET"}},{"type":"Feature","geometry":{"type":"Point","coordinates":[-2.0131380579898956,53.74167507077171]},"properties":{"name":"COFFEE CALI LIMITED","address":"19 BRIDGEGATE, HEBDEN BRIDGE, WEST YORKSHIRE, HX7 8EX","postcode":"HX7 8EX"}},{"type":"Feature","geometry":{"type":"Point","coordinates":[-2.010030599592497,53.74430887307164]},"properties":{"name":"CALREC AUDIO LIMITED","address":"NUTCLOUGH MILL ., VALLEY ROAD, HEBDEN BRIDGE, WEST YORKSHIRE, HX7 8EZ","postcode":"HX7 8EZ"}},{"type":"Feature","geometry":{"type":"Point","coordinates":[-2.009439292088902,53.74442576686006]},"properties":{"name":"BLACKBARK LLP","address":"6-8 NUTCLOUGH, KEIGHLEY ROAD, HEBDEN BRIDGE, WEST YORKSHIRE, HX7 8HA","postcode":"HX7 8HA"}},{"type":"Feature","geometry":{"type":"Point","coordinates":[-2.0104402841627502,53.745486269800196]},"properties":{"name":"2 TEMPO LIMITED","address":"18 UNITY STREET, HEBDEN BRIDGE, WEST YORKSHIRE, HX7 8HQ","postcode":"HX7 8HQ"}},{"type":"Feature","geometry":{"type":"Point","coordinates":[-2.0048602741137307,53.74480354752855]},"properties":{"name":"ERIN SOLUTIONS LIMITED","address":"6 SANDY GATE, HEBDEN BRIDGE, WEST YORKSHIRE, UNITED KINGDOM, HX7 8HZ","postcode":"HX7 8HZ"}},{"type":"Feature","geometry":{"type":"Point","coordinates":[-2.0115624103821137,53.74575580537348]},"properties":{"name":"GEVULOT LIMITED","address":"6 BROUGHTON STREET, HEBDEN BRIDGE, WEST YORKSHIRE, ENGLAND, HX7 8JY","postcode":"HX7 8JY"}},{"type":"Feature","geometry":{"type":"Point","coordinates":[-2.010834664959394,53.74604349203727]},"properties":{"name":"FITTON & CO ACCOUNTANTS LIMITED","address":"38 HIGHFIELD CRESCENT, HEBDEN BRIDGE, WEST YORKSHIRE, HX7 8LA","postcode":"HX7 8LA"}},{"type":"Feature","geometry":{"type":"Point","coordinates":[-2.0111837618834403,53.747319759825096]},"properties":{"name":"HOLME STREET ARTS CENTRE LTD","address":"WOODVILLE, 6 KEIGHLEY ROAD, HEBDEN BRIDGE, WEST YORKSHIRE, HX7 8LL","postcode":"HX7 8LL"}},{"type":"Feature","geometry":{"type":"Point","coordinates":[-2.0138066068192746,53.74599823987707]},"properties":{"name":"HEBDEN BRIDGE ALTERNATIVE TECHNOLOGY CENTRE","address":"UNIT 7, VICTORIA WORKS, VICTORIA ROAD, HEBDEN BRIDGE, WEST YORKSHIRE, HX7 8LN","postcode":"HX7 8LN"}},{"type":"Feature","geometry":{"type":"Point","coordinates":[-2.012821183053976,53.746555609546476]},"properties":{"name":"BID 4 YOU LTD","address":"18 SPRING GROVE, HEBDEN BRIDGE, WEST YORKSHIRE, HX7 8LR","postcode":"HX7 8LR"}},{"type":"Feature","geometry":{"type":"Point","coordinates":[-2.011942179371746,53.74815557187775]},"properties":{"name":"EFFECTIVE WORK FORCE SOLUTIONS LIMITED","address":"3 NURSERY NOOK, HEBDEN BRIDGE, HALIFAX, WEST YORKSHIRE, HX7 8NA","postcode":"HX7 8NA"}},{"type":"Feature","geometry":{"type":"Point","coordinates":[-1.996976414696394,53.7342426743757]},"properties":{"name":"GUY HALEY LIMITED","address":"CALDERBROOK HOUSE, HOLME END ROAD, HEBDEN BRIDGE, ENGLAND, HX7 8NE","postcode":"HX7 8NE"}},{"type":"Feature","geometry":{"type":"Point","coordinates":[-1.998916691376754,53.73678632132201]},"properties":{"name":"AXIS NORTH LIMITED","address":"3 FALLING ROYD, HEBDEN BRIDGE, ENGLAND, HX7 8NT","postcode":"HX7 8NT"}},{"type":"Feature","geometry":{"type":"Point","coordinates":[-1.995081596659946,53.73395499810183]},"properties":{"name":"GUARD-TECH SHEET METAL LIMITED","address":"HOLME END WORKS CALDERBROOK, BURNLEY ROAD, HEBDEN BRIDGE, WEST YORKSHIRE, ENGLAND, HX7 8NX","postcode":"HX7 8NX"}},{"type":"Feature","geometry":{"type":"Point","coordinates":[-1.9917604522109666,53.741298056779264]},"properties":{"name":"HEBDEN BRIDGE GOLF CLUB LIMITED","address":"GREAT MOUNT, WADSWORTH, HEBDEN BRIDGE, WEST YORKSHIRE, HX7 8PH","postcode":"HX7 8PH"}},{"type":"Feature","geometry":{"type":"Point","coordinates":[-1.999523061420879,53.740426482021554]},"properties":{"name":"HOLME HOUSE PROPERTIES (HEBDEN BRIDGE) LIMITED","address":"STEPHENSON HOUSE, BURLEES LANE, HEBDEN BRIDGE, WEST YORKSHIRE, HX7 8PS","postcode":"HX7 8PS"}},{"type":"Feature","geometry":{"type":"Point","coordinates":[-2.0059544638757796,53.76162008607754]},"properties":{"name":"CURIOUS CARGO LIMITED","address":"33 KEIGHLEY ROAD, PECKET WELL, HEBDEN BRIDGE, WEST YORKSHIRE, HX7 8QN","postcode":"HX7 8QN"}},{"type":"Feature","geometry":{"type":"Point","coordinates":[-2.005833360650772,53.763318825929204]},"properties":{"name":"FOOD & DRINK EXPORTESE LIMITED","address":"44 KEIGHLEY ROAD, PECKET WELL, HEBDEN BRIDGE, WEST YORKSHIRE, HX7 8QX","postcode":"HX7 8QX"}},{"type":"Feature","geometry":{"type":"Point","coordinates":[-2.005256929627505,53.76332784186118]},"properties":{"name":"BOGACKI DESIGN LTD","address":"12 PECKET WELL MILL, HEBDEN BRIDGE, WEST YORKSHIRE, HX7 8QY","postcode":"HX7 8QY"}},{"type":"Feature","geometry":{"type":"Point","coordinates":[-2.0114312676513872,53.76492726370275]},"properties":{"name":"FILIO LIMITED","address":"LOWER CRIMSWORTH HOUSE, PECKET WELL, HEBDEN BRIDGE, HX7 8RB","postcode":"HX7 8RB"}},{"type":"Feature","geometry":{"type":"Point","coordinates":[-2.010582237902199,53.76679684824837]},"properties":{"name":"CALDER VALLEY STEINER EDUCATION LTD.","address":"11 DUCK HILL, PECKET WELL, HEBDEN BRIDGE, WEST YORKSHIRE, HX7 8RD","postcode":"HX7 8RD"}},{"type":"Feature","geometry":{"type":"Point","coordinates":[-2.012646465537301,53.7701761316109]},"properties":{"name":"GWC CONSULTING LIMITED","address":"LOWER SMALL SHAW FARM OLD ROAD, PECKET WELL, HEBDEN BRIDGE, HX7 8RF","postcode":"HX7 8RF"}},{"type":"Feature","geometry":{"type":"Point","coordinates":[-2.0081273784663534,53.78066551629262]},"properties":{"name":"GRAIN FARM LIMITED","address":"GRAIN FARM, WADSWORTH, HEBDEN BRIDGE, WEST YORKSHIRE, HX7 8RG","postcode":"HX7 8RG"}},{"type":"Feature","geometry":{"type":"Point","coordinates":[-1.9978246210944526,53.74936057389771]},"properties":{"name":"CANSQUARED LIMITED","address":"24 OLD MILL RIDGE, WADSWORTH, HEBDEN BRIDGE, WEST YORKSHIRE, ENGLAND, HX7 8RT","postcode":"HX7 8RT"}},{"type":"Feature","geometry":{"type":"Point","coordinates":[-1.99709673757272,53.749360560073676]},"properties":{"name":"FIONA ARMER LIMITED","address":"3 LOWER CHISERLEY, BILLY LANE, HEBDEN BRIDGE, HX7 8RZ","postcode":"HX7 8RZ"}},{"type":"Feature","geometry":{"type":"Point","coordinates":[-1.9972331911478127,53.74977401229447]},"properties":{"name":"DESIGNBYSIM LIMITED","address":"5 CHISERLEY FIELDSIDE, HEBDEN BRIDGE, WEST YORKSHIRE, HX7 8SA","postcode":"HX7 8SA"}},{"type":"Feature","geometry":{"type":"Point","coordinates":[-2.0000992696192963,53.75081664903455]},"properties":{"name":"GREATER THAN LTD","address":"2 GREEN END, HEBDEN BRIDGE, WEST YORKSHIRE, UNITED KINGDOM, HX7 8SQ","postcode":"HX7 8SQ"}},{"type":"Feature","geometry":{"type":"Point","coordinates":[-2.003132288441769,53.751634511833444]},"properties":{"name":"BEARD ENTERPRISES LIMITED","address":"OLD TOWN MILL, OLD TOWN, HEBDEN BRIDGE, W YORKS, HX7 8SW","postcode":"HX7 8SW"}},{"type":"Feature","geometry":{"type":"Point","coordinates":[-2.0045128154374487,53.756101511527845]},"properties":{"name":"HARD BOILED EGG LIMITED","address":"COUSINVILLE, WADSWORTH, HEBDEN BRIDGE, ENGLAND, HX7 8TB","postcode":"HX7 8TB"}},{"type":"Feature","geometry":{"type":"Point","coordinates":[-1.997278310614823,53.75617348557487]},"properties":{"name":"HEBDEN BRIDGE EQUESTRIAN CENTRE LIMITED","address":"ALLSWELL FARM, WADSWORTH, HEBDEN BRIDGE, WEST YORKSHIRE, UNITED KINGDOM, HX7 8TF","postcode":"HX7 8TF"}},{"type":"Feature","geometry":{"type":"Point","coordinates":[-1.9906363362530137,53.75137356170113]},"properties":{"name":"BLUEFIN TRADING LIMITED","address":"KEELHAM FARM, WADSWORTH, HEBDEN BRIDGE, WEST YORKSHIRE, HX7 8TG","postcode":"HX7 8TG"}},{"type":"Feature","geometry":{"type":"Point","coordinates":[-2.0142294675628203,53.74104578093802]},"properties":{"name":"IFONEZ LTD","address":"21A WEST END, HEBDEN BRIDGE, UNITED KINGDOM, HX7 8UQ","postcode":"HX7 8UQ"}}]