{"type":"featureCollection","features":[{"type":"Feature","geometry":{"type":"Point","coordinates":[-2.0590100905767894,53.75507040827525]},"properties":{"name":"1000FEETUP LIMITED","address":"1 BROADSTONE COTTAGE, HEBDEN BRIDGE, WEST YORKSHIRE, HX7 7PQ","postcode":"HX7 7PQ"}},{"type":"Feature","geometry":{"type":"Point","coordinates":[-2.0133486116147643,53.7378602240216]},"properties":{"name":"10TH FLOOR IT CONSULTING LIMITED","address":"THE OLD PRESBYTERY, 15 PALACE HOUSE ROAD, HEBDEN BRIDGE, WEST YORKSHIRE, HX7 6HW","postcode":"HX7 6HW"}},{"type":"Feature","geometry":{"type":"Point","coordinates":[-2.0102236193404264,53.74541600828979]},"properties":{"name":"2 TEMPO LIMITED","address":"18 UNITY STREET, HEBDEN BRIDGE, WEST YORKSHIRE, HX7 8HQ","postcode":"HX7 8HQ"}},{"type":"Feature","geometry":{"type":"Point","coordinates":[-1.9866888290711695,53.725590544091624]},"properties":{"name":"360 PIXIE LIMITED","address":"UNIT 4C TOPLAND COUNTRY BUSINESS PARK, CRAGG VALE, HEBDEN BRIDGE, WEST YORKSHIRE, HX7 5RW","postcode":"HX7 5RW"}},{"type":"Feature","geometry":{"type":"Point","coordinates":[-2.0000319877861727,53.7508628433256]},"properties":{"name":"3MT LIMITED","address":"2 GREEN END, HEBDEN BRIDGE, WEST YORKSHIRE, UNITED KINGDOM, HX7 8SQ","postcode":"HX7 8SQ"}},{"type":"Feature","geometry":{"type":"Point","coordinates":[-2.0384688146682937,53.74402333463383]},"properties":{"name":"5 TOLLINGTON PLACE MANAGEMENT LIMITED","address":"HIGH BARN LOWER RAWTONSTALL, BLACKSHAW HEAD, HEBDEN BRIDGE, WEST YORKSHIRE, HX7 7JR","postcode":"HX7 7JR"}},{"type":"Feature","geometry":{"type":"Point","coordinates":[-2.0171523765727692,53.741898217696715]},"properties":{"name":"A & P PROJECT MANAGEMENT LTD","address":"5 THE MILL, BRUNSWICK STREET, HEBDEN BRIDGE, WEST YORKSHIRE, HX7 6AF","postcode":"HX7 6AF"}},{"type":"Feature","geometry":{"type":"Point","coordinates":[-1.9735954374512037,53.729421786485474]},"properties":{"name":"A D PLASTIC SOLUTIONS LIMITED","address":"UNIT 7 MODERNA BUSINESS PARK, MODERNA WAY, MYTHOLMROYD, HEBDEN BRIDGE, WEST YORKSHIRE, HX7 5QQ","postcode":"HX7 5QQ"}},{"type":"Feature","geometry":{"type":"Point","coordinates":[-1.9825875797571566,53.73100512709318]},"properties":{"name":"A G UPHOLSTERY LIMITED","address":"17 BURNLEY ROAD, MYTHOLMROYD, HEBDEN BRIDGE, YORKS, UNITED KINGDOM, HX7 5LH","postcode":"HX7 5LH"}},{"type":"Feature","geometry":{"type":"Point","coordinates":[-1.9826822361253003,53.73090036173593]},"properties":{"name":"A J ELECTRICAL SERVICES (HALIFAX) LTD","address":"17 BURNLEY ROAD, MYTHOLMROYD, HEBDEN BRIDGE, WEST YORKSHIRE, UNITED KINGDOM, HX7 5LH","postcode":"HX7 5LH"}},{"type":"Feature","geometry":{"type":"Point","coordinates":[-2.012732240093512,53.743732944720456]},"properties":{"name":"A R B CONTRACTORS LIMITED","address":"BURLEES HOUSE, HANGINGROYD LANE, HEBDEN BRIDGE, WEST YORKSHIRE, HX7 7DD","postcode":"HX7 7DD"}},{"type":"Feature","geometry":{"type":"Point","coordinates":[-2.0048270902285226,53.744829253249975]},"properties":{"name":"ABACUS ACCESS LIMITED","address":"3 SANDY GATE, HEBDEN BRIDGE, WEST YORKSHIRE, UNITED KINGDOM, HX7 8HZ","postcode":"HX7 8HZ"}},{"type":"Feature","geometry":{"type":"Point","coordinates":[-1.977784795671373,53.72994267802712]},"properties":{"name":"ABACUS PICTURE FRAMING AND GALLERY LTD","address":"UNIT 6 WHITE LEE, MYTHOLMROYD, HEBDEN BRIDGE, WEST YORKSHIRE, HX7 5AD","postcode":"HX7 5AD"}},{"type":"Feature","geometry":{"type":"Point","coordinates":[-2.0158806559688993,53.74146334376127]},"properties":{"name":"ACADEMY OF CLINICAL EXCELLENCE LIMITED","address":"BARCLAYS BANK CHAMBERS, MARKET STREET, HEBDEN BRIDGE, WEST YORKSHIRE, HX7 6AD","postcode":"HX7 6AD"}},{"type":"Feature","geometry":{"type":"Point","coordinates":[-1.9826028764268526,53.73067007520599]},"properties":{"name":"ACCATURA LTD","address":"17 BURNLEY ROAD, MYTHOLMROYD, HEBDEN BRIDGE, UNITED KINGDOM, HX7 5LH","postcode":"HX7 5LH"}},{"type":"Feature","geometry":{"type":"Point","coordinates":[-1.9995554648362237,53.74059302059164]},"properties":{"name":"ADAPTIVE TRAINING LIMITED","address":"IVY HOUSE, BURLEES LANE, HEBDEN BRIDGE, WEST YORKSHIRE, HX7 8PS","postcode":"HX7 8PS"}},{"type":"Feature","geometry":{"type":"Point","coordinates":[-1.982619130366243,53.73090822563859]},"properties":{"name":"ADDITIVE TECHNOLOGIES LIMITED","address":"7A BURNLEY ROAD, MYTHOLMROYD, HEBDEN BRIDGE, WEST YORKSHIRE, UNITED KINGDOM, HX7 5LH","postcode":"HX7 5LH"}},{"type":"Feature","geometry":{"type":"Point","coordinates":[-2.0126259862773495,53.74263981787622]},"properties":{"name":"ADMIN FIRST LIMITED","address":"SUITE 8 VALLEY ROAD, HEBDEN BRIDGE, HEBDEN BRIDGE, WEST YORKS, ENGLAND, HX7 7BL","postcode":"HX7 7BL"}},{"type":"Feature","geometry":{"type":"Point","coordinates":[-2.0115209591611207,53.74160843679182]},"properties":{"name":"ADMINISTRATIVE CHOICE LIMITED","address":"4 GARDEN STREET, HEBDEN BRIDGE, HEBDEN BRIDGE, ENGLAND, HX7 8AQ","postcode":"HX7 8AQ"}},{"type":"Feature","geometry":{"type":"Point","coordinates":[-1.9837775469872578,53.726771819593665]},"properties":{"name":"ADVERGAMER LIMITED","address":"BANK HOUSE, HALL BANK LANE, HEBDEN BRIDGE, WEST YORKSHIRE, ENGLAND, HX7 5HQ","postcode":"HX7 5HQ"}},{"type":"Feature","geometry":{"type":"Point","coordinates":[-2.0114009757095492,53.764890092759714]},"properties":{"name":"ADVOCACYALIGNED LIMITED","address":"PURPRISE FARM, PECKET WELL, HEBDEN BRIDGE, WEST YORKSHIRE, HX7 8RB","postcode":"HX7 8RB"}},{"type":"Feature","geometry":{"type":"Point","coordinates":[-2.015930226358949,53.74138780883538]},"properties":{"name":"AGENCY SIGNS (UK) LTD","address":"BARCLAYS BANK CHAMBERS, MARKET STREET, HEBDEN BRIDGE, WEST YORKSHIRE, HX7 6AD","postcode":"HX7 6AD"}},{"type":"Feature","geometry":{"type":"Point","coordinates":[-2.0210435306374217,53.749351722569074]},"properties":{"name":"AJPOPE SOCIAL WORK LIMITED","address":"2 SWAN FOLD, HEPTONSTALL, HEBDON BRIDGE, ENGLAND, HX7 7NP","postcode":"HX7 7NP"}},{"type":"Feature","geometry":{"type":"Point","coordinates":[-2.0174560782470423,53.740596591920884]},"properties":{"name":"ALAN GARDNER ASSOCIATES LTD","address":"2C BEEHIVE MILLS, HEBBLE END, HEBDEN BRIDGE, WEST YORKSHIRE, ENGLAND, HX7 6HJ","postcode":"HX7 6HJ"}},{"type":"Feature","geometry":{"type":"Point","coordinates":[-2.0172603381622602,53.740412039627266]},"properties":{"name":"ALASKA EQUIPMENT LIMITED","address":"UNIT 3A BEEHIVE MILL, HEBBLE END, HEBDEN BRIDGE, WEST YORKSHIRE, ENGLAND, HX7 6HJ","postcode":"HX7 6HJ"}},{"type":"Feature","geometry":{"type":"Point","coordinates":[-2.0208320862252633,53.75020125283716]},"properties":{"name":"ALISON GRANT ARCHITECTS LTD","address":"5 NORTHFIELD, HEPTONSTALL, HEBDEN BRIDGE, WEST YORKSHIRE, HX7 7NW","postcode":"HX7 7NW"}},{"type":"Feature","geometry":{"type":"Point","coordinates":[-2.0671316448852735,53.744151090010426]},"properties":{"name":"ANDERSON COMPUTER CONSULTANTS LIMITED","address":"6 PENNINE VIEW, BLACKSHAW HEAD, HEBDEN BRIDGE, HX7 7JS","postcode":"HX7 7JS"}},{"type":"Feature","geometry":{"type":"Point","coordinates":[-1.9832221720907406,53.73067173478959]},"properties":{"name":"ANDREW HEPTINSTALL FINANCIAL SERVICES LLP","address":"11 BRIDGE END, HEBDEN BRIDGE, WEST YORKSHIRE, HX7 5DR","postcode":"HX7 5DR"}},{"type":"Feature","geometry":{"type":"Point","coordinates":[-2.022617795559892,53.74882011335439]},"properties":{"name":"ANDREW P MANNING CONTENT SOLUTIONS LTD","address":"24 CHURCH STREET, HEPTONSTALL, HEBDEN BRIDGE, WEST YORKSHIRE, UNITED KINGDOM, HX7 7NS","postcode":"HX7 7NS"}},{"type":"Feature","geometry":{"type":"Point","coordinates":[-1.982801534703141,53.72964653867924]},"properties":{"name":"ANSELL CONSTRUCTION LIMITED","address":"7 NEW ROAD, MYTHOLMROYD, HEBDEN BRIDGE, WEST YORKSHIRE, HX7 5DZ","postcode":"HX7 5DZ"}},{"type":"Feature","geometry":{"type":"Point","coordinates":[-1.992283832136502,53.69587583716912]},"properties":{"name":"ANTHA LIMITED","address":"CRAGGS COUNTRY BUSINESS PARK NEW ROAD, CRAGG VALE, HEBDEN BRIDGE, WEST YORKSHIRE, ENGLAND, HX7 5TT","postcode":"HX7 5TT"}},{"type":"Feature","geometry":{"type":"Point","coordinates":[-1.9824754978028376,53.730879881865924]},"properties":{"name":"AP BOLTON BUILDERS & CONTRACTORS LTD","address":"17 BURNLEY ROAD, MYTHOLMROYD, HEBDEN BRIDGE, WEST YORKSHIRE, ENGLAND, HX7 5LH","postcode":"HX7 5LH"}},{"type":"Feature","geometry":{"type":"Point","coordinates":[-2.011241288575545,53.740353836212094]},"properties":{"name":"AQUA DENTAL CLINIC LIMITED","address":"BARCLAYS BANK CHAMBERS, MARKET STREET, HEBDEN BRIDGE, WEST YORKSHIRE, HX7 8AD","postcode":"HX7 8AD"}},{"type":"Feature","geometry":{"type":"Point","coordinates":[-2.005257464540929,53.74167755003067]},"properties":{"name":"ARB CONSULTING ASSOCIATES LTD","address":"2 WADSWORTH LANE, HEBDEN BRIDGE, HALIFAX, WEST YORKSHIRE, HX7 8DL","postcode":"HX7 8DL"}},{"type":"Feature","geometry":{"type":"Point","coordinates":[-2.012024117498656,53.752791384303166]},"properties":{"name":"ARC PHYSIOTHERAPY LIMITED","address":"VALHALLA, LEE MILL ROAD, HEBDEN BRIDGE, WEST YORKSHIRE, UNITED KINGDOM, HX7 7AE","postcode":"HX7 7AE"}},{"type":"Feature","geometry":{"type":"Point","coordinates":[-2.014068352898417,53.74168549612925]},"properties":{"name":"ARCHITECTONIC DESIGN LTD","address":"11-13 OLDGATE, HEBDEN BRIDGE, WEST YORKSHIRE, HX7 6EN","postcode":"HX7 6EN"}},{"type":"Feature","geometry":{"type":"Point","coordinates":[-1.972231044324383,53.73063281674639]},"properties":{"name":"ARTOME LTD","address":"BRIER HEY HOUSE, BRIER HEY, HEBDEN BRIDGE, WEST YORKSHIRE, HX7 5PF","postcode":"HX7 5PF"}},{"type":"Feature","geometry":{"type":"Point","coordinates":[-2.0131823006801803,53.744372520858285]},"properties":{"name":"ARTSMILL LIMITED","address":"ARTSMILL, LINDEN MILL, HEBDEN BRIDGE, WEST YORKSHIRE, HX7 7DP","postcode":"HX7 7DP"}},{"type":"Feature","geometry":{"type":"Point","coordinates":[-1.9857520759415466,53.72902897311633]},"properties":{"name":"ASPIRE PUBLISHING LTD","address":"59 ELPHABOROUGH CLOSE, MYTHOLMROYD, HALIFAX, WEST YORKSHIRE, UNITED KINGDOM, HX7 5JX","postcode":"HX7 5JX"}},{"type":"Feature","geometry":{"type":"Point","coordinates":[-1.9795448570465037,53.733266674033636]},"properties":{"name":"ASQUITH & SONS (MYTHOLMROYD) LIMITED","address":"40 BANKSFIELD CRESCENT, MYTHOLMROYD, HEBDEN BRIDGE, WEST YORKSHIRE, UNITED KINGDOM, HX7 5NG","postcode":"HX7 5NG"}},{"type":"Feature","geometry":{"type":"Point","coordinates":[-2.0138051865919144,53.74607207238262]},"properties":{"name":"ASTLEY HOUSE LIMITED","address":"VICTORIA WORKS VICTORIA ROAD, HEBDEN BRIDGE, HALIFAX, WEST YORKSHIRE, HX7 8LN","postcode":"HX7 8LN"}},{"type":"Feature","geometry":{"type":"Point","coordinates":[-2.0159576433202946,53.74167208601182]},"properties":{"name":"ATRAD SALES LIMITED","address":"BARCLAYS BANK CHAMBERS, MARKET STREET, HEBDEN BRIDGE, WEST YORKSHIRE, ENGLAND, HX7 6AD","postcode":"HX7 6AD"}},{"type":"Feature","geometry":{"type":"Point","coordinates":[-1.9866034556411654,53.72573306857786]},"properties":{"name":"AUTOMOTIVE MANUFACTURERS RACING ASSOCIATION LIMITED","address":"UNIT 10D TOPLANDS BUSINESS PARK, CRAGG VALE, HEBDEN BRIDGE, WEST YORKSHIRE, HX7 5RW","postcode":"HX7 5RW"}},{"type":"Feature","geometry":{"type":"Point","coordinates":[-2.0106677426732387,53.742591518655395]},"properties":{"name":"AVARICE (MANAGEMENT) LIMITED","address":"4 ST JOHNS CLOSE, HEBDEN BRIDGE, WEST YORKSHIRE, HX7 8DP","postcode":"HX7 8DP"}},{"type":"Feature","geometry":{"type":"Point","coordinates":[-2.0169707282118545,53.74135719668237]},"properties":{"name":"AXARUS LIMITED","address":"BARCLAYS BANK CHAMBERS, MARKET STREET, HEBDEN BRIDGE, WEST YORKSHIRE, HX7 6AA","postcode":"HX7 6AA"}},{"type":"Feature","geometry":{"type":"Point","coordinates":[-1.9987452380884008,53.73674552265799]},"properties":{"name":"AXIS NORTH LIMITED","address":"3 FALLING ROYD, HEBDEN BRIDGE, ENGLAND, HX7 8NT","postcode":"HX7 8NT"}},{"type":"Feature","geometry":{"type":"Point","coordinates":[-1.9911736686393462,53.73021672116398]},"properties":{"name":"BABBLING BROOK NETWORK LTD","address":"5 NEST ESTATE, HEBDEN BRIDGE, WEST YORKSHIRE, HX7 5BH","postcode":"HX7 5BH"}},{"type":"Feature","geometry":{"type":"Point","coordinates":[-2.013005467576522,53.74171568589269]},"properties":{"name":"BAMBOO (H.B.) LIMITED","address":"16A BRIDGE GATE, HEBDEN BRIDGE, WEST YORKSHIRE, HX7 8EX","postcode":"HX7 8EX"}},{"type":"Feature","geometry":{"type":"Point","coordinates":[-2.0159140734510697,53.741572135002606]},"properties":{"name":"BARSERVICE CHC LIMITED","address":"BARCLAYS BANK CHAMBERS, MARKET STREET, HEBDEN BRIDGE, WEST YORKSHIRE, HX7 6AD","postcode":"HX7 6AD"}},{"type":"Feature","geometry":{"type":"Point","coordinates":[-2.012666405963362,53.74385356244876]},"properties":{"name":"BATTINSON AUTO CENTRE LTD","address":"C/O FITTON & CO, BURLEES HOUSE, HANGINGROYD LANE, HEBDEN BRIDGE, ENGLAND, HX7 7DD","postcode":"HX7 7DD"}},{"type":"Feature","geometry":{"type":"Point","coordinates":[-2.0161041368752235,53.74152676956729]},"properties":{"name":"BDS LABORATORY LLP","address":"BARCLAYS BANK CHAMBERS, MARKET STREET, HEBDEN BRIDGE, WEST YORKSHIRE, HX7 6AD","postcode":"HX7 6AD"}},{"type":"Feature","geometry":{"type":"Point","coordinates":[-2.015763925049988,53.7415873569705]},"properties":{"name":"BDS LABS LIMITED","address":"BARCLAYS BANK CHAMBERS, MARKET STREET, HEBDEN BRIDGE, WEST YORKSHIRE, ENGLAND, HX7 6AD","postcode":"HX7 6AD"}},{"type":"Feature","geometry":{"type":"Point","coordinates":[-2.003124363683807,53.75180346340609]},"properties":{"name":"BEARD ENTERPRISES LIMITED","address":"OLD TOWN MILL, OLD TOWN, HEBDEN BRIDGE, W YORKS, HX7 8SW","postcode":"HX7 8SW"}},{"type":"Feature","geometry":{"type":"Point","coordinates":[-1.9831524000982979,53.730728470159114]},"properties":{"name":"BENCHMARK TRAVEL LIMITED","address":"7 - 9, BRIDGE END MYTHOLMROYD, HEBDEN BRIDGE, WEST YORKSHIRE, HX7 5DR","postcode":"HX7 5DR"}},{"type":"Feature","geometry":{"type":"Point","coordinates":[-1.9826737574818907,53.73085024575946]},"properties":{"name":"BG COURIERS LIMITED","address":"C/O LORD & CO ACCOUNTANTS 17 BURNLEY ROAD, MYTHOLMROYD, HEBDEN BRIDGE, WEST YORKSHIRE, UNITED KINGDOM, HX7 5LH","postcode":"HX7 5LH"}},{"type":"Feature","geometry":{"type":"Point","coordinates":[-2.0129565291743075,53.746650715957955]},"properties":{"name":"BID 4 YOU LTD","address":"18 SPRING GROVE, HEBDEN BRIDGE, WEST YORKSHIRE, HX7 8LR","postcode":"HX7 8LR"}},{"type":"Feature","geometry":{"type":"Point","coordinates":[-2.0458276105678475,53.73279181098115]},"properties":{"name":"BIG PETE LIMITED","address":"THE MOTOR SPORTS CENTRE, SANDBED, HEBDEN BRIDGE, WEST YORKSHIRE, HX7 6PT","postcode":"HX7 6PT"}},{"type":"Feature","geometry":{"type":"Point","coordinates":[-2.0126478893270825,53.74385628833896]},"properties":{"name":"BIG RED CIRCLE LTD","address":"BURLEES HOUSE, HANGINGROYD LANE, HEBDEN BRIDGE, WEST YORKSHIRE, HX7 7DD","postcode":"HX7 7DD"}},{"type":"Feature","geometry":{"type":"Point","coordinates":[-1.9897425371821198,53.71956958381602]},"properties":{"name":"BINGHAM & BROCK CHILDCARE LLP","address":"THE ARK DEAN HEY FARM, MYTHOLMROYD, HEBDEN BRIDGE, WEST YORKSHIRE, HX7 5RU","postcode":"HX7 5RU"}},{"type":"Feature","geometry":{"type":"Point","coordinates":[-2.0157249840035645,53.7414342804312]},"properties":{"name":"BIRCH PLACE LIMITED","address":"BARCLAYS BANK CHAMBERS, MARKET STREET, HEBDEN BRIDGE, WEST YORKSHIRE, ENGLAND, HX7 6AD","postcode":"HX7 6AD"}},{"type":"Feature","geometry":{"type":"Point","coordinates":[-2.00874300444553,53.74239157241214]},"properties":{"name":"BIRCHCLIFFE CONSULTANCY LIMITED","address":"WOODSIDE, BIRCHCLIFFE ROAD, HEBDEN BRIDGE, WEST YORKSHIRE, HX7 8DQ","postcode":"HX7 8DQ"}},{"type":"Feature","geometry":{"type":"Point","coordinates":[-2.009441963024528,53.74442542005979]},"properties":{"name":"BLACKBARK LLP","address":"6-8 NUTCLOUGH, KEIGHLEY ROAD, HEBDEN BRIDGE, WEST YORKSHIRE, HX7 8HA","postcode":"HX7 8HA"}},{"type":"Feature","geometry":{"type":"Point","coordinates":[-2.0158978337083973,53.74143079593493]},"properties":{"name":"BLACKSHAW ROYD EQUESTRIAN LIMITED","address":"BARCLAYS BANK CHAMBERS, MARKET STREET, HEBDEN BRIDGE, WEST YORKSHIRE, ENGLAND, HX7 6AD","postcode":"HX7 6AD"}},{"type":"Feature","geometry":{"type":"Point","coordinates":[-1.9734801299423919,53.72952411386269]},"properties":{"name":"BLAH BLAH BLAH UK LIMITED","address":"UNIT 17 MODERNA BUSINESS PARK, MYTHOLMROYD, WESY YORKSHIRE, HX7 5QQ","postcode":"HX7 5QQ"}},{"type":"Feature","geometry":{"type":"Point","coordinates":[-2.015840963706655,53.74132724809322]},"properties":{"name":"BLEA LTD","address":"C/O CRESSWELLS, BARCLAYS BANK CHAMBERS, MARKET STREET, HEBDEN BRIDGE, WEST YORKSHIRE, ENGLAND, HX7 6AD","postcode":"HX7 6AD"}},{"type":"Feature","geometry":{"type":"Point","coordinates":[-2.0121725971399345,53.74027444784063]},"properties":{"name":"BLOW HEBDEN BRIDGE LTD","address":"2 BUTLERS WHARF, NEW ROAD, HEBDEN BRIDGE, UNITED KINGDOM, HX7 8AF","postcode":"HX7 8AF"}},{"type":"Feature","geometry":{"type":"Point","coordinates":[-2.0158753191196057,53.74158344660572]},"properties":{"name":"BLUE VESPA","address":"BARCLAYS BANK CHAMBERS, MARKET STREET, HEBDEN BRIDGE, HX7 6AD","postcode":"HX7 6AD"}},{"type":"Feature","geometry":{"type":"Point","coordinates":[-1.99062806527543,53.751286334080255]},"properties":{"name":"BLUEFIN TRADING LIMITED","address":"KEELHAM FARM, WADSWORTH, HEBDEN BRIDGE, WEST YORKSHIRE, HX7 8TG","postcode":"HX7 8TG"}},{"type":"Feature","geometry":{"type":"Point","coordinates":[-2.013144588019042,53.74385957428805]},"properties":{"name":"BLUEMOOSE BOOKS LTD","address":"25 SACKVILLE STREET, HEBDEN BRIDGE, WEST YORKSHIRE, HX7 7DJ","postcode":"HX7 7DJ"}},{"type":"Feature","geometry":{"type":"Point","coordinates":[-2.017261701607889,53.74047782159129]},"properties":{"name":"BME LEARNING NETWORK (WEST YORKSHIRE)","address":"BEEHIVE MILLS, HEBBLE END, HEBDEN BRIDGE, WEST YORKSHIRE, HX7 6HJ","postcode":"HX7 6HJ"}},{"type":"Feature","geometry":{"type":"Point","coordinates":[-1.9776571652783714,53.730083872226686]},"properties":{"name":"BOB WILD GRASS MACHINERY LIMITED","address":"UNITS 7 & 8 WHITE LEE, MYTHOLMROYD, HEBDEN BRIDGE, WEST YORKS, HX7 5AD","postcode":"HX7 5AD"}},{"type":"Feature","geometry":{"type":"Point","coordinates":[-2.0054286837269175,53.7634738983189]},"properties":{"name":"BOGACKI DESIGN LTD","address":"12 PECKET WELL MILL, HEBDEN BRIDGE, WEST YORKSHIRE, HX7 8QY","postcode":"HX7 8QY"}},{"type":"Feature","geometry":{"type":"Point","coordinates":[-2.0115043552164913,53.74176819616518]},"properties":{"name":"BORILLA LIMITED","address":"4 GARDEN STREET, HEBDEN BRIDGE, WEST YORKSHIRE, ENGLAND, HX7 8AQ","postcode":"HX7 8AQ"}},{"type":"Feature","geometry":{"type":"Point","coordinates":[-2.015908034405021,53.7415557286039]},"properties":{"name":"BOUTIQUE WHITENING LIMITED","address":"BARCLAYS BANK CHAMBERS, MARKET STREET, HEBDEN BRIDGE, WEST YORKSHIRE, ENGLAND, HX7 6AD","postcode":"HX7 6AD"}},{"type":"Feature","geometry":{"type":"Point","coordinates":[-2.0199449224239627,53.74136873856001]},"properties":{"name":"BOWDEN2 LTD","address":"95 BRIDGE LANES, HEBDEN BRIDGE, WEST YORKSHIRE, HX7 6AT","postcode":"HX7 6AT"}},{"type":"Feature","geometry":{"type":"Point","coordinates":[-1.9896329036727745,53.719425155545686]},"properties":{"name":"BRANDED CONSUMABLE GOODS (DIRECT) LTD.","address":"UNIT 2A TOP LAND COUNTRY, BUSINESS PK, CRAGG ROAD, MYTHOLMROYD, HEBDEN BRIDGE, WESTYORKSHIRE, HX7 5RU","postcode":"HX7 5RU"}},{"type":"Feature","geometry":{"type":"Point","coordinates":[-2.0291017695249747,53.74352425811379]},"properties":{"name":"BRIC IO LTD","address":"9 GLEN VIEW, HEBDEN BRIDGE, WEST YORKSHIRE, UNITED KINGDOM, HX7 6DB","postcode":"HX7 6DB"}},{"type":"Feature","geometry":{"type":"Point","coordinates":[-2.028900164221508,53.74357475723235]},"properties":{"name":"BRIC IO SERVICES LLP","address":"9 GLEN VIEW, HEBDEN BRIDGE, WEST YORKSHIRE, UNITED KINGDOM, HX7 6DB","postcode":"HX7 6DB"}},{"type":"Feature","geometry":{"type":"Point","coordinates":[-2.004792720013703,53.744794312777024]},"properties":{"name":"BRIDGE ECONOMICS LIMITED","address":"4 SANDY GATE, HEBDEN BRIDGE, WEST YORKSHIRE, HX7 8HZ","postcode":"HX7 8HZ"}},{"type":"Feature","geometry":{"type":"Point","coordinates":[-2.017239567260954,53.740506299447404]},"properties":{"name":"BRIDGE RECTIFIER LTD","address":"UNIT 1B, HEBBLE END WORKS, HEBDEN BRIDGE, WEST YORKSHIRE, ENGLAND, HX7 6HJ","postcode":"HX7 6HJ"}},{"type":"Feature","geometry":{"type":"Point","coordinates":[-2.012830562284322,53.74250309576787]},"properties":{"name":"BRIGANTIA FUNDING LLP","address":"SUITE ONE HAWKSTONE HOUSE, VALLEY ROAD, HEBDEN BRIDGE, WEST YORKSHIRE, HX7 7BL","postcode":"HX7 7BL"}},{"type":"Feature","geometry":{"type":"Point","coordinates":[-2.0123530993004484,53.74203714144483]},"properties":{"name":"BRINGTONHILL PROPERTIES LIMITED","address":"4 - 6 ST GEORGES SQUARE, HEBDEN BRIDGE, WEST YORKSHIRE, ENGLAND, HX7 8ET","postcode":"HX7 8ET"}},{"type":"Feature","geometry":{"type":"Point","coordinates":[-2.01236305178627,53.74373527658954]},"properties":{"name":"BROOKLYN STUDIO","address":"UNIT 3 38, HANGINGROYD LANE, HEBDEN BRIDGE, WEST YORKSHIRE, HX7 7DD","postcode":"HX7 7DD"}},{"type":"Feature","geometry":{"type":"Point","coordinates":[-2.036520461115943,53.73664909247567]},"properties":{"name":"BROTHERS DAY FILMS LTD","address":"3 INGLE DENE, HEBDEN BRIDGE, HX7 6PQ","postcode":"HX7 6PQ"}},{"type":"Feature","geometry":{"type":"Point","coordinates":[-1.9994351383299318,53.740413120662936]},"properties":{"name":"BTS FIRST AID TRAINING & SERVICES LTD","address":"GREAT BURLEES FARM, BURLEES LANE, HEBDEN BRIDGE, WEST YORKSHIRE, ENGLAND, HX7 8PS","postcode":"HX7 8PS"}},{"type":"Feature","geometry":{"type":"Point","coordinates":[-2.0825282046897353,53.747816877197074]},"properties":{"name":"BULLDOZER MACHINERY LIMITED","address":"1 MOORCOOK ROAD, MOORCOOK ROAD, HEBDEN BRIDGE, WEST YORKSHIRE, ENGLAND, HX7 7JA","postcode":"HX7 7JA"}},{"type":"Feature","geometry":{"type":"Point","coordinates":[-1.9853952723853108,53.73224261069771]},"properties":{"name":"BURNLEY ROAD ACADEMY","address":"BURNLEY ROAD ACADEMY BURNLEY ROAD, MYTHOLMROYD, HEBDEN BRIDGE, WEST YORKSHIRE, ENGLAND, HX7 5DE","postcode":"HX7 5DE"}},{"type":"Feature","geometry":{"type":"Point","coordinates":[-2.013066307078977,53.7425832828311]},"properties":{"name":"BURNS COLLETT PROJECTS LIMITED","address":"THE TOWN HALL, ST GEORGE'S STREET, HEBDEN BRIDGE, WEST YORKSHIRE, HX7 7BY","postcode":"HX7 7BY"}},{"type":"Feature","geometry":{"type":"Point","coordinates":[-2.010280809132313,53.741493921539885]},"properties":{"name":"BUSINESS TECHNOLOGIST LIMITED","address":"APARTMENT 3 ZION BAPTIST CHAPEL, OSBORNE STREET, HEBDEN BRIDGE, WEST YORKSHIRE, ENGLAND, HX7 8DT","postcode":"HX7 8DT"}},{"type":"Feature","geometry":{"type":"Point","coordinates":[-2.0144429684307688,53.7431079158187]},"properties":{"name":"BUTTRESS SYSTEMS LTD.","address":"51 ROYD TERRACE, HEBDEN BRIDGE, WEST YORKSHIRE, UNITED KINGDOM, HX7 7BT","postcode":"HX7 7BT"}},{"type":"Feature","geometry":{"type":"Point","coordinates":[-2.01212071085752,53.740127738464345]},"properties":{"name":"BW FREEHOLD LTD","address":"9 BUTLERS WHARF, HEBDEN BRIDGE, WEST YORKSHIRE, HX7 8AF","postcode":"HX7 8AF"}},{"type":"Feature","geometry":{"type":"Point","coordinates":[-1.977547438603297,53.72984702604952]},"properties":{"name":"BW INDUSTRIAL EQUIPMENT LIMITED","address":"UNIT 7-8, WHITE LEE UNIT 7-8, MYTHOLMROYD, HEBDEN BRIDGE, WEST YORKSHIRE, ENGLAND, HX7 5AD","postcode":"HX7 5AD"}},{"type":"Feature","geometry":{"type":"Point","coordinates":[-2.015922335941054,53.74153610514037]},"properties":{"name":"C & C IT LIMITED","address":"BARCLAYS BANK CHAMBERS, MARKET STREET, HEBDEN BRIDGE, WEST YORKSHIRE, HX7 6AD","postcode":"HX7 6AD"}},{"type":"Feature","geometry":{"type":"Point","coordinates":[-2.01605525907171,53.741617121047646]},"properties":{"name":"C R BOOKKEEPING LIMITED","address":"BARCLAYS BANK CHAMBERS, MARKET STREET, HEBDEN BRIDGE, WEST YORKSHIRE, ENGLAND, HX7 6AD","postcode":"HX7 6AD"}},{"type":"Feature","geometry":{"type":"Point","coordinates":[-2.031193211643305,53.73992600738772]},"properties":{"name":"C.N. TRADING LIMITED","address":"CALDERSIDE NURSERIES, OAKVILLE ROAD, HEBDEN BRIDGE, WEST YORKSHIRE, HX7 6NG","postcode":"HX7 6NG"}},{"type":"Feature","geometry":{"type":"Point","coordinates":[-2.03100977375415,53.739664359167364]},"properties":{"name":"C.N. TRANSPORT LIMITED","address":"CALDERSIDE NURSERIES, CALDERSIDE, HEBDEN BRIDGE, WEST YORKSHIRE, HX7 6NG","postcode":"HX7 6NG"}},{"type":"Feature","geometry":{"type":"Point","coordinates":[-2.0484985513432137,53.73390711931896]},"properties":{"name":"C.V.S.(HEBDEN BRIDGE)LIMITED","address":"ORCHARD COTTAGE, UNDERBANK, HEBDEN BRIDGE, WEST YORKSHIRE, HX7 6PR","postcode":"HX7 6PR"}},{"type":"Feature","geometry":{"type":"Point","coordinates":[-2.0097903126814205,53.74155679774002]},"properties":{"name":"CAFE SARDINIA LTD","address":"BEACHMOUNT MARLBOROUGH ROAD, HEBDEN BRIDGE, HALIFAX, UNITED KINGDOM, HX7 8BW","postcode":"HX7 8BW"}},{"type":"Feature","geometry":{"type":"Point","coordinates":[-1.975720216305363,53.729964771908996]},"properties":{"name":"CALDENE BUSINESS PARK LIMITED","address":"BURNLEY ROAD, MYTHOLMROYD, HEBDEN BRIDGE, WEST YORKSHIRE, HX7 5QJ","postcode":"HX7 5QJ"}},{"type":"Feature","geometry":{"type":"Point","coordinates":[-1.9953619223978454,53.73398754363467]},"properties":{"name":"CALDER BROOK GARAGE LIMITED","address":"CALDER BROOK GARAGE, HOLME END, HEBDEN BRIDGE, WEST YORKSHIRE, HX7 8NX","postcode":"HX7 8NX"}},{"type":"Feature","geometry":{"type":"Point","coordinates":[-2.0092260147014622,53.73978425402896]},"properties":{"name":"CALDER CIVIC TRUST LIMITED","address":"TAP INSTRUMENTS LTD MACHPELAH WORKS, BURNLEY ROAD, HEBDEN BRIDGE, WEST YORKSHIRE, HX7 8AU","postcode":"HX7 8AU"}},{"type":"Feature","geometry":{"type":"Point","coordinates":[-2.0170526289399757,53.7414836476107]},"properties":{"name":"CALDER COMPUTER SERVICES LIMITED","address":"BARCLAYS BANK CHAMBERS, MARKET STREET, HEBDEN BRIDGE, WEST YORKSHIRE, HX7 6AA","postcode":"HX7 6AA"}},{"type":"Feature","geometry":{"type":"Point","coordinates":[-1.9870252916694011,53.730954827046475]},"properties":{"name":"CALDER FOOD HUB COMMUNITY INTEREST COMPANY","address":"6 THE DRIVE, HEBDEN BRIDGE, WEST YORKSHIRE, HX7 5BN","postcode":"HX7 5BN"}},{"type":"Feature","geometry":{"type":"Point","coordinates":[-1.9897555093577604,53.71950472221981]},"properties":{"name":"CALDER RECORDINGS LIMITED","address":"UNIT 9D TOPLAND COUNTRY BUSINESS, PARK MYTHOLMROYD, HALIFAX, WEST YORKSHIRE, HX7 5RU","postcode":"HX7 5RU"}},{"type":"Feature","geometry":{"type":"Point","coordinates":[-2.008845468495273,53.74366321804]},"properties":{"name":"CALDER VALLEY BUSINESS SERVICES LTD.","address":"BIRCHCLIFFE CENTRE, CHAPEL, AVENUE, HEBDEN BRIDGE, WEST YORKSHIRE, HX7 8DG","postcode":"HX7 8DG"}},{"type":"Feature","geometry":{"type":"Point","coordinates":[-2.0094322398780053,53.742074460841835]},"properties":{"name":"CALDER VALLEY COMMERCIAL SERVICES LIMITED","address":"10 BLENHEIM STREET, HEBDEN BRIDGE, WEST YORKSHIRE, HX7 8BU","postcode":"HX7 8BU"}},{"type":"Feature","geometry":{"type":"Point","coordinates":[-1.987442246900713,53.73106471852987]},"properties":{"name":"CALDER VALLEY PLUMBING & HEATING LIMITED","address":"36 ERRINGDEN ROAD, HEBDEN BRIDGE, WEST YORKSHIRE, HX7 5AR","postcode":"HX7 5AR"}},{"type":"Feature","geometry":{"type":"Point","coordinates":[-1.986638601487333,53.72925795277114]},"properties":{"name":"CALDER VALLEY SEARCH AND RESCUE TEAM","address":"THE RESCUE POST, THRUSH HILL ROAD, HEBDEN BRIDGE, WEST YORKSHIRE, HX7 5AQ","postcode":"HX7 5AQ"}},{"type":"Feature","geometry":{"type":"Point","coordinates":[-2.0106585837077295,53.76686505160974]},"properties":{"name":"CALDER VALLEY STEINER EDUCATION LTD.","address":"11 DUCK HILL, PECKET WELL, HEBDEN BRIDGE, WEST YORKSHIRE, HX7 8RD","postcode":"HX7 8RD"}},{"type":"Feature","geometry":{"type":"Point","coordinates":[-1.9814840607151019,53.72756449968276]},"properties":{"name":"CALDER WEAVING COMPANY LIMITED","address":"SCOUT ROAD, MYTHOLMROYD, HEBDEN BRIDGE, WEST YORKSHIRE, HX7 5HZ","postcode":"HX7 5HZ"}},{"type":"Feature","geometry":{"type":"Point","coordinates":[-2.031026380063897,53.73975208382099]},"properties":{"name":"CALDERDALE SELF STORAGE LIMITED","address":"CALDERSIDE NURSERIES, OAKVILLE ROAD, HEBDEN BRIDGE, WEST YORKSHIRE, HX7 6NG","postcode":"HX7 6NG"}},{"type":"Feature","geometry":{"type":"Point","coordinates":[-2.0483340405085646,53.755310525598084]},"properties":{"name":"CALDERDALE STRENGTH & CONDITIONING LTD","address":"16 EDGE HEY GREEN, HEBDEN BRIDGE, WEST YORKSHIRE, ENGLAND, HX7 7HJ","postcode":"HX7 7HJ"}},{"type":"Feature","geometry":{"type":"Point","coordinates":[-2.0090714099619826,53.74359468292957]},"properties":{"name":"CALDERDALE SUSTAINABILITY FORUM LIMITED","address":"21 CHAPEL AVENUE, HEBDEN BRIDGE, WEST YORKSHIRE, HX7 8DG","postcode":"HX7 8DG"}},{"type":"Feature","geometry":{"type":"Point","coordinates":[-2.0100144724773745,53.74421745601837]},"properties":{"name":"CALREC AUDIO LIMITED","address":"NUTCLOUGH MILL ., VALLEY ROAD, HEBDEN BRIDGE, WEST YORKSHIRE, HX7 8EZ","postcode":"HX7 8EZ"}},{"type":"Feature","geometry":{"type":"Point","coordinates":[-1.9920404558167235,53.732557948833794]},"properties":{"name":"CANCAN PRODUCTIONS LIMITED","address":"NEWFIELD LINDEN ROAD, MYTHOLMROYD, HEBDEN BRIDGE, HX7 5AN","postcode":"HX7 5AN"}},{"type":"Feature","geometry":{"type":"Point","coordinates":[-1.9977122569720571,53.74945489475954]},"properties":{"name":"CANSQUARED LIMITED","address":"24 OLD MILL RIDGE, WADSWORTH, HEBDEN BRIDGE, WEST YORKSHIRE, ENGLAND, HX7 8RT","postcode":"HX7 8RT"}},{"type":"Feature","geometry":{"type":"Point","coordinates":[-1.982656182127105,53.73083333938535]},"properties":{"name":"CAPABLE PEOPLE LIMITED","address":"17 BURNLEY ROAD, MYTHOLMROYD, HEBDEN BRIDGE, WEST YORKSHIRE, HX7 5LH","postcode":"HX7 5LH"}},{"type":"Feature","geometry":{"type":"Point","coordinates":[-2.013343547945949,53.75009172341406]},"properties":{"name":"CAPITAL THINKING LTD","address":"BROOK LEIGH, LEE MILL ROAD, HEBDEN BRIDGE, WEST YORKSHIRE, ENGLAND, HX7 7AB","postcode":"HX7 7AB"}},{"type":"Feature","geometry":{"type":"Point","coordinates":[-1.9923502489897824,53.69578787700323]},"properties":{"name":"CARBON CREDIT OFFSETTING LTD","address":"NO.1 CRAGGS COUNTRY BUSINESS PARK, NEW ROAD CRAGG VALE, HEBDEN BRIDGE, WEST YORKSHIRE, UNITED KINGDOM, HX7 5TT","postcode":"HX7 5TT"}},{"type":"Feature","geometry":{"type":"Point","coordinates":[-1.9825420837293872,53.73107289107865]},"properties":{"name":"CARGO LITE LTD","address":"17 BURNLEY ROAD, MYTHOLMROYD, HEBDEN BRIDGE, WEST YORKSHIRE, UNITED KINGDOM, HX7 5LH","postcode":"HX7 5LH"}},{"type":"Feature","geometry":{"type":"Point","coordinates":[-2.016008391080857,53.74133527292988]},"properties":{"name":"CAROLYN BOWERS LIMITED","address":"BARCLAYS BANK CHAMBERS, MARKET STREET, HEBDEN BRIDGE, WEST YORKSHIRE, HX7 6AD","postcode":"HX7 6AD"}},{"type":"Feature","geometry":{"type":"Point","coordinates":[-1.9828045835345052,53.730833094929245]},"properties":{"name":"CARPENTRY JOINERY SERVICES LTD","address":"17 BURNLEY ROAD, MYTHOLMROYD, HEBDEN BRIDGE, WEST YORKSHIRE, UNITED KINGDOM, HX7 5LH","postcode":"HX7 5LH"}},{"type":"Feature","geometry":{"type":"Point","coordinates":[-2.012587776673545,53.742440391954936]},"properties":{"name":"CASSIOPEIA LIMITED","address":"SUITE 1 HAWKSTONE HOUSE, VALLEY ROAD, HEBDEN BRIDGE, HX7 7BL","postcode":"HX7 7BL"}},{"type":"Feature","geometry":{"type":"Point","coordinates":[-1.9907724729617866,53.728987705610585]},"properties":{"name":"CATHY'S SOCIAL CARE LIMITED","address":"3 THROSTLE NEST, MYTHOLMROYD, HEBDEN BRIDGE, WEST YORKSHIRE, UNITED KINGDOM, HX7 5BG","postcode":"HX7 5BG"}},{"type":"Feature","geometry":{"type":"Point","coordinates":[-2.0144207534131433,53.74454933082864]},"properties":{"name":"CAUSEWAY ASSOCIATES LTD","address":"4 MAYFIELD ROAD, HEBDEN BRIDGE, HALIFAX, WEST YORKSHIRE, UNITED KINGDOM, HX7 7DT","postcode":"HX7 7DT"}},{"type":"Feature","geometry":{"type":"Point","coordinates":[-2.0170142097199246,53.74149026246112]},"properties":{"name":"CBC OUTSOURCING LLP","address":"12 MARKET STREET, HEBDEN BRIDGE, WEST YORKSHIRE, HX7 6AA","postcode":"HX7 6AA"}},{"type":"Feature","geometry":{"type":"Point","coordinates":[-2.0169938928251865,53.74137336843817]},"properties":{"name":"CDZ LIMITED","address":"BARCLAYS BANK CHAMBERS, MARKET STREET, HEBDEN BRIDGE, WEST YORKSHIRE, HX7 6AA","postcode":"HX7 6AA"}},{"type":"Feature","geometry":{"type":"Point","coordinates":[-1.9865156668168489,53.72556314139101]},"properties":{"name":"CENTRE STAGE PERCUSSION LIMITED","address":"UNIT 7 TOPLAND COUNTRY BUSINESS PARK, CRAGG VALE, HEBDEN BRIDGE, YORKSHIRE, HX7 5RW","postcode":"HX7 5RW"}},{"type":"Feature","geometry":{"type":"Point","coordinates":[-1.986640764984203,53.72570401372565]},"properties":{"name":"CENTRE STAGE UNIFORMS LIMITED","address":"UNIT 7 TOPLAND COUNTRY BUSINESS PARK, CRAGG VALE, HEBDEN BRIDGE, YORKSHIRE, HX7 5RW","postcode":"HX7 5RW"}},{"type":"Feature","geometry":{"type":"Point","coordinates":[-2.0167953347007033,53.74137895844839]},"properties":{"name":"CHELTERMILL LIMITED","address":"BARCLAYS BANK CHAMBERS, HEBDEN BRIDGE, WEST YORKSHIRE, HX7 6AA","postcode":"HX7 6AA"}},{"type":"Feature","geometry":{"type":"Point","coordinates":[-2.0158949423354486,53.741493806902334]},"properties":{"name":"CHIEF DIGITAL LIMITED","address":"BARCLAYS BANK CHAMBERS, MARKET STREET, HEBDEN BRIDGE, WEST YORKSHIRE, ENGLAND, HX7 6AD","postcode":"HX7 6AD"}},{"type":"Feature","geometry":{"type":"Point","coordinates":[-2.017450294494067,53.74236820905308]},"properties":{"name":"CLAIRE DONNELLY LIMITED","address":"18 ALBION TERRACE, HEPTONSTALL ROAD, HEBDEN BRIDGE, WEST YORKSHIRE, HX7 6BE","postcode":"HX7 6BE"}},{"type":"Feature","geometry":{"type":"Point","coordinates":[-2.049297272555203,53.73770639272045]},"properties":{"name":"CLARUS LIVING LIMITED","address":"4-5 WINTERS COTTAGES, BLACKSHAW HEAD, HEBDEN BRIDGE, WEST YORKSHIRE, UNITED KINGDOM, HX7 7JU","postcode":"HX7 7JU"}},{"type":"Feature","geometry":{"type":"Point","coordinates":[-2.049094216218936,53.737637431531226]},"properties":{"name":"CLARUS PROPERTY INVESTMENTS LIMITED","address":"4-5 WINTERS COTTAGES, BLACKSHAW HEAD, HEBDEN BRIDGE, WEST YORKSHIRE, HX7 7JU","postcode":"HX7 7JU"}},{"type":"Feature","geometry":{"type":"Point","coordinates":[-2.012363870723041,53.74373483183366]},"properties":{"name":"CLEARMOVE LTD","address":"BURLEES HOUSE, HANGINGROYD LANE, HEBDEN BRIDGE, WEST YORKSHIRE, HX7 7DD","postcode":"HX7 7DD"}},{"type":"Feature","geometry":{"type":"Point","coordinates":[-1.986703068015528,53.725676920887295]},"properties":{"name":"CLEARWAY ESTATE AGENTS LIMITED","address":"UNIT 10D TOPLANDS BUSINESS PARK, CRAGG VALE, HEBDEN BRIDGE, WEST YORKSHIRE, ENGLAND, HX7 5RW","postcode":"HX7 5RW"}},{"type":"Feature","geometry":{"type":"Point","coordinates":[-1.9798727920750445,53.73201063841274]},"properties":{"name":"CLOGS UK LIMITED","address":"UNIT 10 MOUNT PLEASANT MILLS, MIDGLEY ROAD, MYTHOLMROYD, WEST YORKS, HX7 5LR","postcode":"HX7 5LR"}},{"type":"Feature","geometry":{"type":"Point","coordinates":[-1.986844356264087,53.70449514881206]},"properties":{"name":"CLOUD RELEVANCE LTD","address":"PLODWELL FARM, CRAGG VALE, HEBDEN BRIDGE, WEST YORKSHIRE, HX7 5TU","postcode":"HX7 5TU"}},{"type":"Feature","geometry":{"type":"Point","coordinates":[-1.9890768696421925,53.723592798088056]},"properties":{"name":"CM DIESELS LTD","address":"99 CRAGG ROAD, HEBDEN BRIDGE, WEST YORKSHIRE, UNITED KINGDOM, HX7 5FB","postcode":"HX7 5FB"}},{"type":"Feature","geometry":{"type":"Point","coordinates":[-2.031116544985038,53.73978715225515]},"properties":{"name":"CN PROPERTY LLP","address":"CALDERSIDE NURSERIES, OAKVILLE ROAD, HEBDEN BRIDGE, WEST YORKSHIRE, HX7 6NG","postcode":"HX7 6NG"}},{"type":"Feature","geometry":{"type":"Point","coordinates":[-2.020785903297334,53.7501028221143]},"properties":{"name":"CO-OP CULTURE","address":"1 NORTHFIELD, HEBDEN BRIDGE, WEST YORKSHIRE, HX7 7NW","postcode":"HX7 7NW"}},{"type":"Feature","geometry":{"type":"Point","coordinates":[-2.011390124627254,53.764725240008445]},"properties":{"name":"CODELOGIC LIMITED","address":"LOWER CRIMSWORTH BARN, PECKET, WELL, HEBDEN BRIDGE, WEST YORKSHIRE, HX7 8RB","postcode":"HX7 8RB"}},{"type":"Feature","geometry":{"type":"Point","coordinates":[-2.0131448367261435,53.74155543043504]},"properties":{"name":"COFFEE CALI LIMITED","address":"19 BRIDGEGATE, HEBDEN BRIDGE, WEST YORKSHIRE, HX7 8EX","postcode":"HX7 8EX"}},{"type":"Feature","geometry":{"type":"Point","coordinates":[-2.062618351610321,53.74921047721307]},"properties":{"name":"COLDEN INTERIMS LIMITED","address":"SYCAMORE HOUSE 1 NEW SHAW LANE, BLACKSHAW HEAD, HEBDEN BRIDGE, WEST YORKSHIRE, HX7 7HZ","postcode":"HX7 7HZ"}},{"type":"Feature","geometry":{"type":"Point","coordinates":[-1.977469412573726,53.72738028300526]},"properties":{"name":"COLOUR (YORKSHIRE) LTD","address":"16 ALBERT STREET, HEBDEN BRIDGE, WEST YORKSHIRE, HX7 5JR","postcode":"HX7 5JR"}},{"type":"Feature","geometry":{"type":"Point","coordinates":[-1.9735238912973982,53.72943521161484]},"properties":{"name":"COMMS PROVIDER LLP","address":"THE CONTINUUM, MODERNA BUSINESS PARK, MYTHOLMROYD, WEST YORKSHIRE, HX7 5QQ","postcode":"HX7 5QQ"}},{"type":"Feature","geometry":{"type":"Point","coordinates":[-2.024976423616194,53.74018909744945]},"properties":{"name":"COMPULINK SOLUTIONS LIMITED","address":"9 STUBBING BRINK, HEBDEN BRIDGE, WEST YORKSHIRE, HX7 6LR","postcode":"HX7 6LR"}},{"type":"Feature","geometry":{"type":"Point","coordinates":[-1.982646364156185,53.73078140855457]},"properties":{"name":"CONCRETE MORTGAGE SOLUTIONS LTD","address":"17 BURNLEY ROAD, MYTHOLMROYD, HEBDEN BRIDGE, WEST YORKSHIRE, UNITED KINGDOM, HX7 5LH","postcode":"HX7 5LH"}},{"type":"Feature","geometry":{"type":"Point","coordinates":[-1.9896783479703806,53.719700560933504]},"properties":{"name":"CONE RECORDS LIMITED","address":"UNIT 9D TOP LAND COUNTRY, BUSINESS PARK CRAGG ROAD, MYTHOLMROYD NR HEBDEN BRIDGE, WEST YORKSHIRE, HX7 5RU","postcode":"HX7 5RU"}},{"type":"Feature","geometry":{"type":"Point","coordinates":[-2.024902009326713,53.741623394687096]},"properties":{"name":"CORYLUS CONSULTING LTD.","address":"20 LONGSTAFF COURT, HEBDEN BRIDGE, UNITED KINGDOM, HX7 6AB","postcode":"HX7 6AB"}},{"type":"Feature","geometry":{"type":"Point","coordinates":[-1.9865648566596783,53.72570128968249]},"properties":{"name":"COUNTRYSIDE LEARNING","address":"UNIT 4F TOPLAND COUNTRY BUSINESS PARK, CRAGG VALE, HEBDEN BRIDGE, WEST YORKSHIRE, HX7 5RW","postcode":"HX7 5RW"}},{"type":"Feature","geometry":{"type":"Point","coordinates":[-2.0213222649236893,53.749174717637665]},"properties":{"name":"CPPS POLICY EXCHANGE LTD","address":"64 TOWNGATE, HEPTONSTALL, HEBDEN BRIDGE, WEST YORKSHIRE, HX7 7NB","postcode":"HX7 7NB"}},{"type":"Feature","geometry":{"type":"Point","coordinates":[-1.9864648063891388,53.725733807556274]},"properties":{"name":"CPS COMPLIANCE SOLUTIONS LIMITED","address":"UNIT 10D TOPLAND COUNTRY BUSINESS PARK, CRAGG VALE, HEBDEN BRIDGE, WEST YORKSHIRE, HX7 5RW","postcode":"HX7 5RW"}},{"type":"Feature","geometry":{"type":"Point","coordinates":[-1.9973047851091628,53.75633523809385]},"properties":{"name":"CRAFTY PONIES LIMITED","address":"ALLSWELL FARM, WADSWORTH, HEBDEN BRIDGE, WEST YORKSHIRE, UNITED KINGDOM, HX7 8TF","postcode":"HX7 8TF"}},{"type":"Feature","geometry":{"type":"Point","coordinates":[-1.9957344714646734,53.707773111829816]},"properties":{"name":"CRAGG BUILDERS LIMITED","address":"CASTLE HALL UNIT, CRAGG VALE, HEBDEN BRIDGE, WEST YORKSHIRE, HX7 5SS","postcode":"HX7 5SS"}},{"type":"Feature","geometry":{"type":"Point","coordinates":[-2.050030191006506,53.766793237532674]},"properties":{"name":"CRAGG ENGINEERING SERVICES LIMITED","address":"ACRE LANE COTTAGE, WIDDOP ROAD, HEBDEN BRIDGE, WEST YORKSHIRE, HX7 7AZ","postcode":"HX7 7AZ"}},{"type":"Feature","geometry":{"type":"Point","coordinates":[-1.9958536771123652,53.707819616347976]},"properties":{"name":"CRAGG PROPERTIES LTD","address":"CASTLE HALL UNIT, CRAGG VALE, HEBDEN BRIDGE, WEST YORKSHIRE, HX7 5SS","postcode":"HX7 5SS"}},{"type":"Feature","geometry":{"type":"Point","coordinates":[-1.9979922822110372,53.69600192270406]},"properties":{"name":"CRAGG VALE COMMUNITY LIMITED","address":"2 GREEN BANK, HEBDEN BRIDGE, WEST YORKSHIRE, HX7 5TP","postcode":"HX7 5TP"}},{"type":"Feature","geometry":{"type":"Point","coordinates":[-1.9868831354396637,53.704489992256505]},"properties":{"name":"CRAGG VALE CONSULTANCY LIMITED","address":"COB CASTLE COPPY NOOK LANE CRAGG VALE, HEBDEN BRIDGE, WEST YORKSHIRE, HX7 5TU","postcode":"HX7 5TU"}},{"type":"Feature","geometry":{"type":"Point","coordinates":[-1.9824984334119837,53.707762422058416]},"properties":{"name":"CRAGG VALE CONSULTING (CVC) LIMITED","address":"SWAT FARM COPPY NOOK LANE, CRAGG VALE, HEBDEN BRIDGE, HX7 5TX","postcode":"HX7 5TX"}},{"type":"Feature","geometry":{"type":"Point","coordinates":[-1.99236934988458,53.695862768096966]},"properties":{"name":"CRAGGS ENERGY LIMITED","address":"THE CRAGGS COUNTRY BUSINESS PARK NEW ROAD, CRAGG VALE, HEBDEN BRIDGE, WEST YORKSHIRE, HX7 5TT","postcode":"HX7 5TT"}},{"type":"Feature","geometry":{"type":"Point","coordinates":[-1.9923940905299693,53.69573271214752]},"properties":{"name":"CRAGGS ENVIRONMENTAL LIMITED","address":"THE CRAGGS COUNTRY BUS PARK NEW ROAD, CRAGG VALE, HEBDEN BRIDGE, WEST YORKSHIRE, HX7 5TT","postcode":"HX7 5TT"}},{"type":"Feature","geometry":{"type":"Point","coordinates":[-1.9920889795267445,53.69579629874575]},"properties":{"name":"CRAGGS FUEL CARDS LTD","address":"THE CRAGGS COUNTRY BUSINESS PARK NEW ROAD, CRAGG VALE, HEBDEN BRIDGE, WEST YORKSHIRE, ENGLAND, HX7 5TT","postcode":"HX7 5TT"}},{"type":"Feature","geometry":{"type":"Point","coordinates":[-2.0198272046701655,53.74145445229818]},"properties":{"name":"CREATIVE CANVAS LIMITED","address":"95 BRIDGE LANES, HEBDEN BRIDGE, WEST YORKSHIRE, HX7 6AT","postcode":"HX7 6AT"}},{"type":"Feature","geometry":{"type":"Point","coordinates":[-2.015918137198814,53.74152887386139]},"properties":{"name":"CRESSWELL CRABTREE & SONS LIMITED","address":"BARCLAYS BANK CHAMBERS, MARKET STREET, HEBDEN BRIDGE, WEST YORKSHIRE, ENGLAND, HX7 6AD","postcode":"HX7 6AD"}},{"type":"Feature","geometry":{"type":"Point","coordinates":[-2.015910852850937,53.7413470536861]},"properties":{"name":"CRESSWELLS ACCOUNTANTS (UK) LIMITED","address":"BARCLAYS BANK CHAMBERS, MARKET STREET, HEBDEN BRIDGE, WEST YORKSHIRE, UNITED KINGDOM, HX7 6AD","postcode":"HX7 6AD"}},{"type":"Feature","geometry":{"type":"Point","coordinates":[-2.0159339683034645,53.741677537960875]},"properties":{"name":"CRESSWELLS ACCOUNTANTS LLP","address":"BARCLAYS BANK CHAMBERS, MARKET STREET, HEBDEN BRIDGE, WEST YORKSHIRE, HX7 6AD","postcode":"HX7 6AD"}},{"type":"Feature","geometry":{"type":"Point","coordinates":[-2.015861560866481,53.741696504777316]},"properties":{"name":"CRESSWELLS LIMITED","address":"BARCLAYS BANK CHAMBERS, MARKET STREET, HEBDEN BRIDGE, WEST YORKSHIRE, HX7 6AD","postcode":"HX7 6AD"}},{"type":"Feature","geometry":{"type":"Point","coordinates":[-1.982654055501587,53.73080986707234]},"properties":{"name":"CRESTFIELD IT SOLUTIONS LTD","address":"17 BURNLEY ROAD, MYTHOLMROYD, HEBDEN BRIDGE, WEST YORKSHIRE, UNITED KINGDOM, HX7 5LH","postcode":"HX7 5LH"}},{"type":"Feature","geometry":{"type":"Point","coordinates":[-1.9738083244461337,53.73407310273125]},"properties":{"name":"CRICKET ASYLUM LIMITED","address":"8 HULLETT CLOSE, HEBDEN BRIDGE, WEST YORKSHIRE, ENGLAND, HX7 5QP","postcode":"HX7 5QP"}},{"type":"Feature","geometry":{"type":"Point","coordinates":[-2.016990351662586,53.741380326141794]},"properties":{"name":"CS HOTEL SOLUTIONS LTD","address":"CRESSWELLS, BARCLAYS BANK CHAMBERS, HEBDEN BRIDGE, WEST YORKSHIRE, ENGLAND, HX7 6AA","postcode":"HX7 6AA"}},{"type":"Feature","geometry":{"type":"Point","coordinates":[-1.9816694492059563,53.72769104310145]},"properties":{"name":"CSR DISTRIBUTION LIMITED","address":"CSR DISTRIBUTION ORCHARD BUSINESS PARK, SCOUT ROAD, HEBDEN BRIDGE, WEST YORKSHIRE, UNITED KINGDOM, HX7 5HZ","postcode":"HX7 5HZ"}},{"type":"Feature","geometry":{"type":"Point","coordinates":[-2.0061142177291966,53.76155163516674]},"properties":{"name":"CURIOUS CARGO LIMITED","address":"33 KEIGHLEY ROAD, PECKET WELL, HEBDEN BRIDGE, WEST YORKSHIRE, HX7 8QN","postcode":"HX7 8QN"}},{"type":"Feature","geometry":{"type":"Point","coordinates":[-1.977280698171206,53.730137075330774]},"properties":{"name":"CUSTOMISED SEWING SERVICES LTD","address":"UNIT 1D WHITE LEE BUSINESS PARK, MYTHOLMROYD, HEBDEN BRIDGE, WEST YORKSHIRE, HX7 5AD","postcode":"HX7 5AD"}},{"type":"Feature","geometry":{"type":"Point","coordinates":[-2.0228940719763697,53.74984918541808]},"properties":{"name":"CWK CONSULTANCY LIMITED","address":"9 SMITHWELL LANE, HEBDEN BRIDGE, WEST YORKSHIRE, GREAT BRITAIN, HX7 7NX","postcode":"HX7 7NX"}},{"type":"Feature","geometry":{"type":"Point","coordinates":[-2.0219864954760007,53.74797176454836]},"properties":{"name":"D P SQUARED LIMITED","address":"22 HEPTON DRIVE, HEPTONSTALL, HEBDEN BRIDGE, WEST YORKSHIRE, HX7 7LU","postcode":"HX7 7LU"}},{"type":"Feature","geometry":{"type":"Point","coordinates":[-1.9759589782565845,53.73423760241475]},"properties":{"name":"D.E.A. (YORKSHIRE) LTD","address":"5 LEE CLOUGH DRIVE, MYTHOLMROYD, HEBDEN BRIDGE, W YORKS, HX7 5PP","postcode":"HX7 5PP"}},{"type":"Feature","geometry":{"type":"Point","coordinates":[-2.012870539444501,53.74167465165996]},"properties":{"name":"DAISY AND SAM LTD.","address":"7 CROWN STREET, HEBDEN BRIDGE, WEST YORKSHIRE, HX7 8EH","postcode":"HX7 8EH"}},{"type":"Feature","geometry":{"type":"Point","coordinates":[-2.009655406992697,53.74153729285021]},"properties":{"name":"DARIO'S PIZZERIA LTD","address":"BEECHMOUNT, MARLBOROUGH ROAD, HEBDEN BRIDGE, WEST YORKSHIRE, HX7 8BW","postcode":"HX7 8BW"}},{"type":"Feature","geometry":{"type":"Point","coordinates":[-2.020400222262659,53.747258738631096]},"properties":{"name":"DAWSON ACCESS LTD","address":"36 LONGFIELD, LONGFIELD, HEBDEN BRIDGE, WEST YORKSHIRE, ENGLAND, HX7 7LR","postcode":"HX7 7LR"}},{"type":"Feature","geometry":{"type":"Point","coordinates":[-2.012591377268798,53.743869364142206]},"properties":{"name":"DECKMEDIA LIMITED","address":"BURLEES HOUSE, HANGINGROYD LANE, HEBDEN BRIDGE, WEST YORKSHIRE, HX7 7DD","postcode":"HX7 7DD"}},{"type":"Feature","geometry":{"type":"Point","coordinates":[-1.9825773849245412,53.731039392924714]},"properties":{"name":"DEE'S HOMECARE LTD","address":"17 BURNLEY ROAD, MYTHOLMROYD, HEBDEN BRIDGE, WEST YORKSHIRE, UNITED KINGDOM, HX7 5LH","postcode":"HX7 5LH"}},{"type":"Feature","geometry":{"type":"Point","coordinates":[-1.9885296640466115,53.727350625190276]},"properties":{"name":"DELTA ORIGINS LIMITED","address":"34 CRAGG ROAD, HEBDEN BRIDGE, WEST YORKSHIRE, UNITED KINGDOM, HX7 5EG","postcode":"HX7 5EG"}},{"type":"Feature","geometry":{"type":"Point","coordinates":[-1.9973024066680196,53.74983631429836]},"properties":{"name":"DESIGNBYSIM LIMITED","address":"5 CHISERLEY FIELDSIDE, HEBDEN BRIDGE, WEST YORKSHIRE, HX7 8SA","postcode":"HX7 8SA"}},{"type":"Feature","geometry":{"type":"Point","coordinates":[-2.0026604894158564,53.74298431584132]},"properties":{"name":"DIAMOND DOGS DOG WALKING LIMITED","address":"6 MANOR DRIVE, HEBDON BRIDGE, UNITED KINGDOM, HX7 8DW","postcode":"HX7 8DW"}},{"type":"Feature","geometry":{"type":"Point","coordinates":[-2.01599288137508,53.74156941068495]},"properties":{"name":"DIAMOND PROPERTIES (YORKSHIRE) LIMITED","address":"BARCLAYS BANK CHAMBERS, MARKET STREET, HEBDEN BRIDGE, WEST YORKSHIRE, HX7 6AD","postcode":"HX7 6AD"}},{"type":"Feature","geometry":{"type":"Point","coordinates":[-1.9905197164202522,53.73175763291281]},"properties":{"name":"DISCOTOX LIMITED","address":"6 PADDY BRIDGE ROAD, HEBDEN BRIDGE, WEST YORKSHIRE, UNITED KINGDOM, HX7 5BP","postcode":"HX7 5BP"}},{"type":"Feature","geometry":{"type":"Point","coordinates":[-1.9923512324430117,53.69590705732888]},"properties":{"name":"DISCOVERING LIFE LIMITED","address":"SUITE 10 CRAGGS OFFICE SUITES THE CRAGGS COUNTRY BUSINESS PARK, NEW ROAD, CRAGG VALE, HEBDEN BRIDGE, WEST YORKSHIRE, HX7 5TT","postcode":"HX7 5TT"}},{"type":"Feature","geometry":{"type":"Point","coordinates":[-1.9971646669282295,53.75634340784169]},"properties":{"name":"DMC BUILDERS LIMITED","address":"ALLSWELL FARM, WADSWORTH, HEBDEN BRIDGE, WEST YORKSHIRE, HX7 8TF","postcode":"HX7 8TF"}},{"type":"Feature","geometry":{"type":"Point","coordinates":[-2.0127110924976748,53.74381633761967]},"properties":{"name":"DNG LOCUM SERVICES LTD","address":"C/O FITTON & CO, BURLEES HOUSE, HANGINGROYD LANE, HEBDEN BRIDGE, ENGLAND, HX7 7DD","postcode":"HX7 7DD"}},{"type":"Feature","geometry":{"type":"Point","coordinates":[-1.9816461328443085,53.72778934666459]},"properties":{"name":"DOG HONEST LTD","address":"UNIT 7, ORCHARD BUSINESS PARK, HALIFAX, WEST YORKSHIRE, UNITED KINGDOM, HX7 5HZ","postcode":"HX7 5HZ"}},{"type":"Feature","geometry":{"type":"Point","coordinates":[-2.058720663174169,53.75020734616541]},"properties":{"name":"DOOLALLY INNS LTD","address":"NEW DELIGHT INN, BLACKSHAW HEAD, HEBDEN BRIDGE, WEST YORKSHIRE, ENGLAND, HX7 7HT","postcode":"HX7 7HT"}},{"type":"Feature","geometry":{"type":"Point","coordinates":[-2.0159303100610693,53.741531499549374]},"properties":{"name":"DORA & HEGGARTY LIMITED","address":"BARCLAYS BANK CHAMBERS, MARKET STREET, HEBDEN BRIDGE, WEST YORKSHIRE, ENGLAND, HX7 6AD","postcode":"HX7 6AD"}},{"type":"Feature","geometry":{"type":"Point","coordinates":[-2.012713069530613,53.74379009736639]},"properties":{"name":"DOWN2EARTH CENTRE LTD","address":"SUITE 4, BURLEES HOUSE, HANGINGROYD LANE, HEBDEN BRIDGE, ENGLAND, HX7 7DD","postcode":"HX7 7DD"}},{"type":"Feature","geometry":{"type":"Point","coordinates":[-2.012448580345081,53.75271470924335]},"properties":{"name":"DR J REDFERN LIMITED","address":"VALHALLA, LEE MILL ROAD, HEBDEN BRIDGE, WEST YORKSHIRE, ENGLAND, HX7 7AE","postcode":"HX7 7AE"}},{"type":"Feature","geometry":{"type":"Point","coordinates":[-2.041604508970242,53.73670094817315]},"properties":{"name":"DR LINDA PATTERSON LIMITED","address":"KNOTT HALL, CHARLESTOWN, HEBDEN BRIDGE, WEST YORKSHIRE, ENGLAND, HX7 6PE","postcode":"HX7 6PE"}},{"type":"Feature","geometry":{"type":"Point","coordinates":[-1.9732779259945963,53.729686218537026]},"properties":{"name":"DREW FORSYTH & CO LTD.","address":"UNIT 1A MODERNA BUSINESS PARK MODERNA WAY, MYTHOLMROYD, HEBDEN BRIDGE, W. YORKS, HX7 5QQ","postcode":"HX7 5QQ"}},{"type":"Feature","geometry":{"type":"Point","coordinates":[-2.01385839099254,53.74089387018505]},"properties":{"name":"DREW FORSYTH DESIGNS LTD","address":"27 WEST END, HEBDEN BRIDGE, WEST YORKSHIRE, HX7 8UQ","postcode":"HX7 8UQ"}},{"type":"Feature","geometry":{"type":"Point","coordinates":[-2.0161137488680194,53.74155800517605]},"properties":{"name":"DRING TECHNOLOGY SOLUTIONS LIMITED","address":"BARCLAYS BANK CHAMBERS, MARKET STREET, HEBDEN BRIDGE, WEST YORKSHIRE, ENGLAND, HX7 6AD","postcode":"HX7 6AD"}},{"type":"Feature","geometry":{"type":"Point","coordinates":[-1.9826845638316943,53.7306262224112]},"properties":{"name":"DRYSURE UK LTD","address":"17 BURNLEY ROAD, MYTHOLMROYD, HEBDEN BRIDGE, WEST YORKSHIRE, UNITED KINGDOM, HX7 5LH","postcode":"HX7 5LH"}},{"type":"Feature","geometry":{"type":"Point","coordinates":[-2.0159105348250597,53.74145358410755]},"properties":{"name":"DUALMIST FIRE PRODUCTS LIMITED","address":"BARCLAYS BANK CHAMBERS, MARKET STREET, HEBDEN BRIDGE, WEST YORKSHIRE, HX7 6AD","postcode":"HX7 6AD"}},{"type":"Feature","geometry":{"type":"Point","coordinates":[-2.015877530383646,53.74132138055581]},"properties":{"name":"DUALMIST LIMITED","address":"BARCLAYS BANK CHAMBERS, MARKET STREET, HEBDEN BRIDGE, WEST YORKSHIRE, ENGLAND, HX7 6AD","postcode":"HX7 6AD"}},{"type":"Feature","geometry":{"type":"Point","coordinates":[-2.015872706042633,53.74150916674199]},"properties":{"name":"DUVKET INVESTMENTS LIMITED","address":"BARCLAYS BANK CHAMBERS, MARKET STREET, HEBDEN BRIDGE, WEST YORKSHIRE, ENGLAND, HX7 6AD","postcode":"HX7 6AD"}},{"type":"Feature","geometry":{"type":"Point","coordinates":[-1.9826228251327345,53.73084990092697]},"properties":{"name":"E.S. MAINTENANCE SERVICES LTD","address":"17 BURNLEY ROAD, MYTHOLMROYD, HEBDEN BRIDGE, WEST YORKSHIRE, HX7 5LH","postcode":"HX7 5LH"}},{"type":"Feature","geometry":{"type":"Point","coordinates":[-2.012792041433899,53.74385113076104]},"properties":{"name":"EASTWOODS RENEWABLES LIMITED","address":"C/O FITTON & CO BURLEES HOUSE, HANGINGROYD LANE, HEBDEN BRIDGE, HX7 7DD","postcode":"HX7 7DD"}},{"type":"Feature","geometry":{"type":"Point","coordinates":[-1.9857566962317617,53.731066083305784]},"properties":{"name":"ECLIPSE CLIMBING LIMITED","address":"44 CALDENE AVENUE, HEBDEN BRIDGE, HX7 5AF","postcode":"HX7 5AF"}},{"type":"Feature","geometry":{"type":"Point","coordinates":[-1.9797943661523114,53.73219480358381]},"properties":{"name":"ECO FRIENDLY FURNISHINGS LIMITED","address":"MOUNT PLEASANT MILLS MIDGLEY ROAD, MYTHOLMROYD, HEBDEN BRIDGE, WEST YORKSHIRE, HX7 5LR","postcode":"HX7 5LR"}},{"type":"Feature","geometry":{"type":"Point","coordinates":[-2.045866371906838,53.732832219964706]},"properties":{"name":"ECO HEAT AND POWER LIMITED","address":"2 SANDBED, HEBDEN BRIDGE, WEST YORKSHIRE, HX7 6PT","postcode":"HX7 6PT"}},{"type":"Feature","geometry":{"type":"Point","coordinates":[-2.017246389973016,53.74059551535332]},"properties":{"name":"ECO SCHOOL PRODUCTS LTD","address":"BEEHIVE MILLS, HEBBLE END, HEBDEN BRIDGE, WEST YORKSHIRE, ENGLAND, HX7 6HJ","postcode":"HX7 6HJ"}},{"type":"Feature","geometry":{"type":"Point","coordinates":[-2.0119043481205043,53.74815057553346]},"properties":{"name":"EFFECTIVE WORK FORCE SOLUTIONS LIMITED","address":"3 NURSERY NOOK, HEBDEN BRIDGE, HALIFAX, WEST YORKSHIRE, HX7 8NA","postcode":"HX7 8NA"}},{"type":"Feature","geometry":{"type":"Point","coordinates":[-2.015906516114519,53.74118586757148]},"properties":{"name":"ELEMENT JEWELLERY LTD.","address":"25 MARKET STREET, HEBDEN BRIDGE, WEST YORKSHIRE, HX7 6EU","postcode":"HX7 6EU"}},{"type":"Feature","geometry":{"type":"Point","coordinates":[-1.9994308198799753,53.70495142339131]},"properties":{"name":"ELIXIR SYSTEMS LIMITED","address":"THE OLD STABLES, BLACKSTONE EDGE ROAD CRAGG VALE, NR HEBDEN BRIDGE, WEST YORKSHIRE, HX7 5TG","postcode":"HX7 5TG"}},{"type":"Feature","geometry":{"type":"Point","coordinates":[-1.9963907826046345,53.69828333653146]},"properties":{"name":"ELIZABETH MCWHIRTER LIMITED","address":"3 LITTLEWOOD, CRAGG VALE, HEBDEN BRIDGE, WEST YORKSHIRE, HX7 5TL","postcode":"HX7 5TL"}},{"type":"Feature","geometry":{"type":"Point","coordinates":[-2.0159949018792394,53.74142390192892]},"properties":{"name":"ELLENBROOK PARTNERS LIMITED","address":"BARCLAYS BANK CHAMBERS, MARKET STREET, HEBDEN BRIDGE, UNITED KINGDOM, HX7 6AD","postcode":"HX7 6AD"}},{"type":"Feature","geometry":{"type":"Point","coordinates":[-2.0291880387867716,53.74152882675847]},"properties":{"name":"ELLIVIEW LIMITED","address":"WOODENTOPS, SAVILE ROAD, HEBDEN BRIDGE, WEST YORKSHIRE, ENGLAND, HX7 6ND","postcode":"HX7 6ND"}},{"type":"Feature","geometry":{"type":"Point","coordinates":[-2.009202202225205,53.74012020137787]},"properties":{"name":"EQUINE SOLUTIONS UK LIMITED","address":"2 MACHPELAH, HEBDEN BRIDGE, WEST YORKSHIRE, HX7 8AU","postcode":"HX7 8AU"}},{"type":"Feature","geometry":{"type":"Point","coordinates":[-2.0048789262951883,53.74481309040246]},"properties":{"name":"ERIN SOLUTIONS LIMITED","address":"6 SANDY GATE, HEBDEN BRIDGE, WEST YORKSHIRE, UNITED KINGDOM, HX7 8HZ","postcode":"HX7 8HZ"}},{"type":"Feature","geometry":{"type":"Point","coordinates":[-1.9866383807087493,53.725613357836714]},"properties":{"name":"ETERNAL BEAUTY STUDIO LIMITED","address":"UNIT 10D TOPLAND COUNTRY BUSINESS PARK, CRAGG VALE, HEBDEN BRIDGE, WEST YORKSHIRE, HX7 5RW","postcode":"HX7 5RW"}},{"type":"Feature","geometry":{"type":"Point","coordinates":[-2.0116327796966083,53.741089229126594]},"properties":{"name":"EVANMORE LTD","address":"THE OLD POLICE STATION, HOPE STREET, HEBDEN BRIDGE, WEST YORKSHIRE, ENGLAND, HX7 8AG","postcode":"HX7 8AG"}},{"type":"Feature","geometry":{"type":"Point","coordinates":[-2.015213572929532,53.74603834731339]},"properties":{"name":"EVERSLEY ROAD MANAGEMENT LIMITED","address":"1 SLATER BANK, HEBDEN BRIDGE, WEST YORKS, HX7 7DY","postcode":"HX7 7DY"}},{"type":"Feature","geometry":{"type":"Point","coordinates":[-1.9897792311663571,53.71958803002713]},"properties":{"name":"EXPERTREAT LIMITED","address":"UNIT 3A TOP LAND COUNTRY, BUSINESS PARK CRAGG ROAD, MYTHOLMROYD HEBDEN BRIDGE, WEST YORKSHIRE, HX7 5RU","postcode":"HX7 5RU"}},{"type":"Feature","geometry":{"type":"Point","coordinates":[-1.9826718312816691,53.73067883372452]},"properties":{"name":"F M AND K CONSTRUCTION LTD","address":"C/O LORD & SWAIN ACCOUNTANTS 17 BURNLEY ROAD, MYTHOLMROYD, HEBDEN BRIDGE, UNITED KINGDOM, HX7 5LH","postcode":"HX7 5LH"}},{"type":"Feature","geometry":{"type":"Point","coordinates":[-1.977814346989431,53.729577282898894]},"properties":{"name":"FACTORYLUX LTD","address":"OLD TROUSER FACTORY GREENHILL INDUSTRIAL MYTHOLMROYD, MYTHOLMROYD, HEBDEN BRIDGE, UNITED KINGDOM, HX7 5QF","postcode":"HX7 5QF"}},{"type":"Feature","geometry":{"type":"Point","coordinates":[-2.0058511766187026,53.76340642119926]},"properties":{"name":"FAIRBANKS FOOD&DRINK CONSULTANCY LTD.","address":"44 KEIGHLEY ROAD, PECKETT WELL, HEBDEN BRIDGE, HALIFAX, HX7 8QX","postcode":"HX7 8QX"}},{"type":"Feature","geometry":{"type":"Point","coordinates":[-2.012751134134156,53.74369513927826]},"properties":{"name":"FAST DOORS DIRECT LTD","address":"C/O FITTON & CO BURLEES HOUSE, HANGINGROYD LANE, HEBDEN BRIDGE, ENGLAND, HX7 7DD","postcode":"HX7 7DD"}},{"type":"Feature","geometry":{"type":"Point","coordinates":[-2.0124752716702523,53.74262282971764]},"properties":{"name":"FAST LANE (YORKSHIRE) LIMITED","address":"SUITE ONE HAWKSTONE HOUSE, VALLEY ROAD, HEBDEN BRIDGE, WEST YORKSHIRE, HX7 7BL","postcode":"HX7 7BL"}},{"type":"Feature","geometry":{"type":"Point","coordinates":[-1.9774706620777294,53.73170866641284]},"properties":{"name":"FEET FIRST CHIROPODY & PODIATRY LIMITED","address":"4 LAUREATE PLACE, MYTHOLMROYD, HEBDEN BRIDGE, WEST YORKSHIRE, ENGLAND, HX7 5PS","postcode":"HX7 5PS"}},{"type":"Feature","geometry":{"type":"Point","coordinates":[-2.0168786142800545,53.741245167267756]},"properties":{"name":"FIBRE SUPERIORE LIMITED","address":"BARCLAYS BANK CHAMBERS, HEBDEN BRIDGE, HALIFAX, WEST YORKSHIRE, HX7 6AA","postcode":"HX7 6AA"}},{"type":"Feature","geometry":{"type":"Point","coordinates":[-2.0115559651735393,53.764850388928245]},"properties":{"name":"FILIO LIMITED","address":"LOWER CRIMSWORTH HOUSE, PECKET WELL, HEBDEN BRIDGE, HX7 8RB","postcode":"HX7 8RB"}},{"type":"Feature","geometry":{"type":"Point","coordinates":[-1.9971231546810104,53.74919874118035]},"properties":{"name":"FIONA ARMER LIMITED","address":"3 LOWER CHISERLEY, BILLY LANE, HEBDEN BRIDGE, HX7 8RZ","postcode":"HX7 8RZ"}},{"type":"Feature","geometry":{"type":"Point","coordinates":[-2.0159018261529362,53.741450191078656]},"properties":{"name":"FIR WOOD IT LLP","address":"BARCLAYS BANK CHAMBERS, MARKET STREET, HEBDEN BRIDGE, WEST YORKSHIRE, HX7 6AD","postcode":"HX7 6AD"}},{"type":"Feature","geometry":{"type":"Point","coordinates":[-2.0108439577638078,53.746061462685766]},"properties":{"name":"FITTON & CO ACCOUNTANTS LIMITED","address":"38 HIGHFIELD CRESCENT, HEBDEN BRIDGE, WEST YORKSHIRE, HX7 8LA","postcode":"HX7 8LA"}},{"type":"Feature","geometry":{"type":"Point","coordinates":[-1.981449835934661,53.727864139376635]},"properties":{"name":"FLOWER OF LIFE LTD","address":"UNIT 2A ORCHARD BUSINESS PARK, SCOUT ROAD, HEBDEN BRIDGE, WEST YORKSHIRE, HX7 5HZ","postcode":"HX7 5HZ"}},{"type":"Feature","geometry":{"type":"Point","coordinates":[-2.0056016070886917,53.763447394868486]},"properties":{"name":"FOOD & DRINK EXPORTERS ASSOCIATION LIMITED","address":"CHANGE COTTAGE 43/44 KEIGHLEY ROAD, PECKET WELL, HEBDEN BRIDGE, WEST YORKSHIRE, HX7 8QX","postcode":"HX7 8QX"}},{"type":"Feature","geometry":{"type":"Point","coordinates":[-2.0059069947798944,53.763485941403815]},"properties":{"name":"FOOD & DRINK EXPORTESE LIMITED","address":"44 KEIGHLEY ROAD, PECKET WELL, HEBDEN BRIDGE, WEST YORKSHIRE, HX7 8QX","postcode":"HX7 8QX"}},{"type":"Feature","geometry":{"type":"Point","coordinates":[-2.063977795953361,53.744507336863684]},"properties":{"name":"FRANKEL ESTATES LIMITED","address":"3 MOOR HOUSE VIEW, BLACKSHAW HEAD, HEBDEN BRIDGE, WEST YORKSHIRE, UNITED KINGDOM, HX7 7EL","postcode":"HX7 7EL"}},{"type":"Feature","geometry":{"type":"Point","coordinates":[-2.0284373935828963,53.741676538764395]},"properties":{"name":"FROD DIGITAL DEVELOPMENT LTD","address":"EAST VIEW, SAVILE ROAD, HEBDEN BRIDGE, WEST YORKSHIRE, HX7 6LZ","postcode":"HX7 6LZ"}},{"type":"Feature","geometry":{"type":"Point","coordinates":[-2.0150765584285204,53.744864670726464]},"properties":{"name":"FROZENSHEEP LTD","address":"12 ESKDALE MOUNT, HEBDEN BRIDGE, WEST YORKSHIRE, HX7 7EB","postcode":"HX7 7EB"}},{"type":"Feature","geometry":{"type":"Point","coordinates":[-1.982628715699878,53.730800987972614]},"properties":{"name":"FUNKLE CHICKEN LTD","address":"17 BURNLEY ROAD, MYTHOLMROYD, HEBDEN BRIDGE, UNITED KINGDOM, HX7 5LH","postcode":"HX7 5LH"}},{"type":"Feature","geometry":{"type":"Point","coordinates":[-2.017126725120792,53.741641809023704]},"properties":{"name":"FUSION IT CONSULTANTS LTD","address":"5 THE MILL, BRUNSWICK STREET, HEBDEN BRIDGE, WEST YORKSHIRE, HX7 6AF","postcode":"HX7 6AF"}},{"type":"Feature","geometry":{"type":"Point","coordinates":[-2.011509563139426,53.74195309611911]},"properties":{"name":"GARETH CONNOR LIMITED","address":"C/O BACK TO BASICS MANAGEMENT 4 GARDEN STREET, HEBDEN BRIDGE, WEST YORKSHIRE, UNITED KINGDOM, HX7 8AQ","postcode":"HX7 8AQ"}},{"type":"Feature","geometry":{"type":"Point","coordinates":[-1.9879045094548033,53.72934678665855]},"properties":{"name":"GASWORKS TODMORDEN LIMITED","address":"18 STOCKS GARDENS, MYTHOLMROYD, HEBDEN BRIDGE, WEST YORKSHIRE, UNITED KINGDOM, HX7 5AY","postcode":"HX7 5AY"}},{"type":"Feature","geometry":{"type":"Point","coordinates":[-1.9733458920411107,53.729371132059256]},"properties":{"name":"GB AIR CONTROL LIMITED","address":"UNIT 14A & B, MODERNA BUSINESS PARK, MODERNA WAY MYTHOLMROYD, HEBDEN BRIDGE, WEST YORKSHIRE, HX7 5QQ","postcode":"HX7 5QQ"}},{"type":"Feature","geometry":{"type":"Point","coordinates":[-2.014398479442906,53.74318954685052]},"properties":{"name":"GEANT4 ASSOCIATES INTERNATIONAL LTD","address":"9 ROYD TERRACE, HEBDEN BRIDGE, HX7 7BT","postcode":"HX7 7BT"}},{"type":"Feature","geometry":{"type":"Point","coordinates":[-2.013123201059431,53.74251204894835]},"properties":{"name":"GEEKOLOGY LTD","address":"TOWN HALL, ST. GEORGES STREET, HEBDEN BRIDGE, WEST YORKSHIRE, HX7 7BY","postcode":"HX7 7BY"}},{"type":"Feature","geometry":{"type":"Point","coordinates":[-2.0115874652842467,53.745736325964444]},"properties":{"name":"GEVULOT LIMITED","address":"6 BROUGHTON STREET, HEBDEN BRIDGE, WEST YORKSHIRE, ENGLAND, HX7 8JY","postcode":"HX7 8JY"}},{"type":"Feature","geometry":{"type":"Point","coordinates":[-2.0384382735392332,53.74416528692484]},"properties":{"name":"GHA 2011 LIMITED","address":"GREEN HOUSE FARM, NEW LANE, BLACKSHAWHEAD, HEBDEN BRIDGE, WEST YORKSHIRE, HX7 7JR","postcode":"HX7 7JR"}},{"type":"Feature","geometry":{"type":"Point","coordinates":[-1.9863477059512458,53.72766734198003]},"properties":{"name":"GIANT OAK TREE LIMITED","address":"18 THE BROOK, MYTHOLMROYD, HEBDEN BRIDGE, WEST YORKSHIRE, HX7 5ED","postcode":"HX7 5ED"}},{"type":"Feature","geometry":{"type":"Point","coordinates":[-2.0266946963814294,53.743666459250676]},"properties":{"name":"GIBBONS ASSOCIATES LTD","address":"HILL BRINK, MYTHOLM BANK, HEBDEN BRIDGE, HX7 6DL","postcode":"HX7 6DL"}},{"type":"Feature","geometry":{"type":"Point","coordinates":[-2.058427472214882,53.75199902440848]},"properties":{"name":"GISMOSYS LIMITED","address":"SHADE TAVERN, LOWER SMITHY, COLDEN, HEBDEN BRIDGE, WEST YORKSHIRE, UNITED KINGDOM, HX7 7HP","postcode":"HX7 7HP"}},{"type":"Feature","geometry":{"type":"Point","coordinates":[-1.9820611199913416,53.72947757580779]},"properties":{"name":"GNR MOTOR ENGINEERS LTD","address":"UNIT 1, GEORGE STREET, MYTHOLMROYD, HEBDEN BRIDGE, WEST YORKSHIRE, HX7 5DT","postcode":"HX7 5DT"}},{"type":"Feature","geometry":{"type":"Point","coordinates":[-1.9826464671648734,53.73077813252242]},"properties":{"name":"GOLDEN FISH 168 LIMITED","address":"3 BURNLEY ROAD, MYTHOLMROYD, HEBDEN BRIDGE, ENGLAND, HX7 5LH","postcode":"HX7 5LH"}},{"type":"Feature","geometry":{"type":"Point","coordinates":[-2.008150537705639,53.78062437928597]},"properties":{"name":"GRAIN FARM LIMITED","address":"GRAIN FARM, WADSWORTH, HEBDEN BRIDGE, WEST YORKSHIRE, HX7 8RG","postcode":"HX7 8RG"}},{"type":"Feature","geometry":{"type":"Point","coordinates":[-2.01975456944821,53.74136124741573]},"properties":{"name":"GRAPHICA DISPLAY LIMITED","address":"95 BRIDGE LANES, HEBDEN BRIDGE, WEST YORKSHIRE, HX7 6AT","postcode":"HX7 6AT"}},{"type":"Feature","geometry":{"type":"Point","coordinates":[-2.057974211479208,53.75184505379267]},"properties":{"name":"GREAT ROCK LTD.","address":"2 LOWER SMITHY, COLDEN, HEBDEN BRIDGE, WEST YORKSHIRE, HX7 7HP","postcode":"HX7 7HP"}},{"type":"Feature","geometry":{"type":"Point","coordinates":[-2.000012817931559,53.750820255819875]},"properties":{"name":"GREATER THAN LTD","address":"2 GREEN END, HEBDEN BRIDGE, WEST YORKSHIRE, UNITED KINGDOM, HX7 8SQ","postcode":"HX7 8SQ"}},{"type":"Feature","geometry":{"type":"Point","coordinates":[-2.0140639584533355,53.74180720011751]},"properties":{"name":"GREEN ALUMINIUM LIMITED","address":"HEBBLE HOUSE, OLDGATE, HEBDEN BRIDGE, WEST YORKSHIRE, HX7 6EN","postcode":"HX7 6EN"}},{"type":"Feature","geometry":{"type":"Point","coordinates":[-1.9823442437398053,53.73080945332726]},"properties":{"name":"GREEN VALLEY ARBORISTS LTD","address":"17 BURNLEY ROAD, MYTHOLMROYD, HEBDEN BRIDGE, UNITED KINGDOM, HX7 5LH","postcode":"HX7 5LH"}},{"type":"Feature","geometry":{"type":"Point","coordinates":[-2.037480489198492,53.75212520020177]},"properties":{"name":"GREENS PEDIGREE CHICKS LIMITED","address":"PINFOLD FARM, HEPTONSTALL, HEBDEN BRIDGE, HX7 7PD","postcode":"HX7 7PD"}},{"type":"Feature","geometry":{"type":"Point","coordinates":[-2.0122354714622084,53.74293858707182]},"properties":{"name":"GREYFRIARS ADVISORY LIMITED","address":"5-6 WRAGLEY HOUSE, VALLEY ROAD, HEBDEN BRIDGE, WEST YORKSHIRE, HX7 7BN","postcode":"HX7 7BN"}},{"type":"Feature","geometry":{"type":"Point","coordinates":[-2.0157027788909874,53.740831286884834]},"properties":{"name":"GROUND FLOOR","address":"SALEM COMMUNITY CENTRE, CENTRAL STREET, HEBDEN BRIDGE, WEST YORKSHIRE, HX7 6HB","postcode":"HX7 6HB"}},{"type":"Feature","geometry":{"type":"Point","coordinates":[-2.01274487581385,53.7438680261123]},"properties":{"name":"GROWTH INTO AWARENESS (2014) LIMITED","address":"SUITE 5, BURLEES HOUSE, HANGINGROYD LANE, HEBDEN BRIDGE, ENGLAND, HX7 7DD","postcode":"HX7 7DD"}},{"type":"Feature","geometry":{"type":"Point","coordinates":[-1.9897437325901253,53.71979721921564]},"properties":{"name":"GSM PROJECTS LIMITED","address":"UNIT 1C DEAN HAY FARM, CRAGG VALE, HEBDEN BRIDGE, WEST YORKSHIRE, ENGLAND, HX7 5RU","postcode":"HX7 5RU"}},{"type":"Feature","geometry":{"type":"Point","coordinates":[-1.9952179145921252,53.733861286461476]},"properties":{"name":"GUARD TECH INDUSTRIAL SERVICES LIMITED","address":"HOLME END WORKS CALDERBROOK, BURNLEY ROAD, HEBDEN BRIDGE, WEST YORKSHIRE, HX7 8NX","postcode":"HX7 8NX"}},{"type":"Feature","geometry":{"type":"Point","coordinates":[-1.99504751660069,53.7338041179517]},"properties":{"name":"GUARD-TECH SHEET METAL LIMITED","address":"HOLME END WORKS CALDERBROOK, BURNLEY ROAD, HEBDEN BRIDGE, WEST YORKSHIRE, ENGLAND, HX7 8NX","postcode":"HX7 8NX"}},{"type":"Feature","geometry":{"type":"Point","coordinates":[-2.0160637380972535,53.741687946624545]},"properties":{"name":"GULLSEDGE LTD","address":"32 HANGINGROYD ROAD, HEBDEN BRIDGE, WEST YORKSHIRE, UNITED KINGDOM, HX7 6AH","postcode":"HX7 6AH"}},{"type":"Feature","geometry":{"type":"Point","coordinates":[-1.996955948883304,53.73426854372964]},"properties":{"name":"GUY HALEY LIMITED","address":"CALDERBROOK HOUSE, HOLME END ROAD, HEBDEN BRIDGE, ENGLAND, HX7 8NE","postcode":"HX7 8NE"}},{"type":"Feature","geometry":{"type":"Point","coordinates":[-2.0126394449572547,53.77031925002529]},"properties":{"name":"GWC CONSULTING LIMITED","address":"LOWER SMALL SHAW FARM OLD ROAD, PECKET WELL, HEBDEN BRIDGE, HX7 8RF","postcode":"HX7 8RF"}},{"type":"Feature","geometry":{"type":"Point","coordinates":[-1.9865568586166535,53.72559452193365]},"properties":{"name":"H & R PLANT SERVICES (TODMORDEN) LIMITED","address":"UNIT 10D TOPLAND COUNTRY BUSINESS PARK, CRAGG VALE, HEBDEN BRIDGE, WEST YORKSHIRE, HX7 5RW","postcode":"HX7 5RW"}},{"type":"Feature","geometry":{"type":"Point","coordinates":[-2.02733533379715,53.74600720576248]},"properties":{"name":"H D SALVAGE LIMITED","address":"18 EAVES AVENUE, HEBDEN BRIDGE, WEST YORKSHIRE, HX7 6DJ","postcode":"HX7 6DJ"}},{"type":"Feature","geometry":{"type":"Point","coordinates":[-1.9718588058355526,53.730681970506666]},"properties":{"name":"H.E.C. CONTRACTING LIMITED","address":"ELECTRIC HOUSE, MODERNA WAY, MYTHOLMROYD, HEBDEN BRIDGE, WEST YORKSHIRE, HX7 5PZ","postcode":"HX7 5PZ"}},{"type":"Feature","geometry":{"type":"Point","coordinates":[-2.011496068693378,53.74355711114219]},"properties":{"name":"H.O.H. ASSETS LIMITED","address":"UNIT 6 PENNINE INDUSTRIAL ESTATE, VALLEY ROAD, HEBDEN BRIDGE, WEST YORKSHIRE, HX7 7BZ","postcode":"HX7 7BZ"}},{"type":"Feature","geometry":{"type":"Point","coordinates":[-2.0127470290599696,53.74383700529665]},"properties":{"name":"HAIGH HEALTH CONSULTING LTD","address":"C/O FITTON & CO BURLEES HOUSE, HANGINGROYD LANE, HEBDEN BRIDGE, ENGLAND, HX7 7DD","postcode":"HX7 7DD"}},{"type":"Feature","geometry":{"type":"Point","coordinates":[-2.015772559842061,53.74132787661798]},"properties":{"name":"HALF BLUE","address":"BARCLAYS BANK CHAMBERS, MARKET STREET, HEBDEN BRIDGE, WEST YORKSHIRE, HX7 6AD","postcode":"HX7 6AD"}},{"type":"Feature","geometry":{"type":"Point","coordinates":[-2.0209904377460717,53.74092262148542]},"properties":{"name":"HALIFAX WIREFORM CO.LIMITED","address":"CALDER MILL, HEBDEN BRIDGE, WEST YORKSHIRE, HX7 6LJ","postcode":"HX7 6LJ"}},{"type":"Feature","geometry":{"type":"Point","coordinates":[-2.0163293368583517,53.73938540292905]},"properties":{"name":"HALL WAY PARTNERS LIMITED","address":"3 STANLEIGH CROFT, PALACE HOUSE ROAD, HEBDEN BRIDGE, WEST YORKSHIRE, HX7 6HD","postcode":"HX7 6HD"}},{"type":"Feature","geometry":{"type":"Point","coordinates":[-2.0138037489151537,53.74599171858146]},"properties":{"name":"HANDMADE PARADE CIC","address":"UNIT 5, VICTORIA ROAD, HEBDEN BRIDGE, WEST YORKSHIRE, ENGLAND, HX7 8LN","postcode":"HX7 8LN"}},{"type":"Feature","geometry":{"type":"Point","coordinates":[-2.017353341876742,53.74147509459916]},"properties":{"name":"HANNAH NUNN LIMITED","address":"26 MARKET STREET, HEBDEN BRIDGE, WEST YORKSHIRE, HX7 6AA","postcode":"HX7 6AA"}},{"type":"Feature","geometry":{"type":"Point","coordinates":[-2.0127829936971784,53.743955828911844]},"properties":{"name":"HANSROD CONSULTING LTD","address":"C/O FITTON & CO, BURLEES HOUSE, HANGINGROYD LANE, HEBDEN BRIDGE, ENGLAND, HX7 7DD","postcode":"HX7 7DD"}},{"type":"Feature","geometry":{"type":"Point","coordinates":[-2.009028538842574,53.74385259109504]},"properties":{"name":"HAPPY VALLEY DECORATING LIMITED","address":"9 EDWARD STREET, HEBDEN BRIDGE, WEST YORKSHIRE, HX7 8DF","postcode":"HX7 8DF"}},{"type":"Feature","geometry":{"type":"Point","coordinates":[-2.0224976988127947,53.74908449135426]},"properties":{"name":"HARD ACT THEATRE COMPANY LTD","address":"28 CHURCH STREET, HEPTONSTALL, HEBDEN BRIDGE, HX7 7NS","postcode":"HX7 7NS"}},{"type":"Feature","geometry":{"type":"Point","coordinates":[-2.0045115090013357,53.75611774211716]},"properties":{"name":"HARD BOILED EGG LIMITED","address":"COUSINVILLE, WADSWORTH, HEBDEN BRIDGE, ENGLAND, HX7 8TB","postcode":"HX7 8TB"}},{"type":"Feature","geometry":{"type":"Point","coordinates":[-2.023286107945328,53.74666132719201]},"properties":{"name":"HARDMAN INFORMATION TECHNOLOGY CONSULTING LTD","address":"25 BECKETTS CLOSE, HEPTONSTALL, HEBDEN BRIDGE, WEST YORKSHIRE, ENGLAND, HX7 7LJ","postcode":"HX7 7LJ"}},{"type":"Feature","geometry":{"type":"Point","coordinates":[-2.082474925071602,53.74765657059531]},"properties":{"name":"HARTLEY ACCOMODATION LTD","address":"MOORHALL FARM COTTAGE MOORHALL FARM COTTAGE, BLACKSHAW HEAD, HEBDEN BRIDGE, UNITED KINGDOM, HX7 7JA","postcode":"HX7 7JA"}},{"type":"Feature","geometry":{"type":"Point","coordinates":[-2.0260426526468556,53.74108040534716]},"properties":{"name":"HAVELOCK PLACE MANAGEMENT (WHITBY) LIMITED","address":"HILLCROFT, STUBBING DRIVE, HEBDEN BRIDGE, WEST YORKSHIRE, WEST YORKSHIRE, HX7 6LS","postcode":"HX7 6LS"}},{"type":"Feature","geometry":{"type":"Point","coordinates":[-2.02311106830051,53.74112818248194]},"properties":{"name":"HEART TO HEART CONNECTION LTD","address":"11 TRINITY STREET, HEBDEN BRIDGE, W YORKSHIRE, HX7 6LP","postcode":"HX7 6LP"}},{"type":"Feature","geometry":{"type":"Point","coordinates":[-2.0741464685531015,53.76173999638629]},"properties":{"name":"HEATH AND HERB LIMITED","address":"POPPLES CLOSE FARM, EDGE LANE HEPTONSTALL, HEBDEN BRIDGE, UNITED KINGDOM, HX7 7PG","postcode":"HX7 7PG"}},{"type":"Feature","geometry":{"type":"Point","coordinates":[-1.9798447382048627,53.73682900683578]},"properties":{"name":"HEATHER J CONNOR LIMITED","address":"HILL HOUSE FARM, RAW LANE MYTHOLMROYD, HEBDEN BRIDGE, WEST YORKSHIRE, UNITED KINGDOM, HX7 5RF","postcode":"HX7 5RF"}},{"type":"Feature","geometry":{"type":"Point","coordinates":[-2.0142215214140795,53.7419474499845]},"properties":{"name":"HEBBLE HOUSE LTD","address":"HEBBLE HOUSE, OLDGATE, HEBDEN BRIDGE, UNITED KINGDOM, HX7 6EN","postcode":"HX7 6EN"}},{"type":"Feature","geometry":{"type":"Point","coordinates":[-2.013785191409327,53.74608121473921]},"properties":{"name":"HEBDEN BRIDGE ALTERNATIVE TECHNOLOGY CENTRE","address":"UNIT 7, VICTORIA WORKS, VICTORIA ROAD, HEBDEN BRIDGE, WEST YORKSHIRE, HX7 8LN","postcode":"HX7 8LN"}},{"type":"Feature","geometry":{"type":"Point","coordinates":[-2.013138573216816,53.74252953237907]},"properties":{"name":"HEBDEN BRIDGE ARTS FESTIVAL LTD","address":"HEBDEN BRIDGE TOWN HALL, ST. GEORGES STREET, HEBDEN BRIDGE, WEST YORKSHIRE, HX7 7BY","postcode":"HX7 7BY"}},{"type":"Feature","geometry":{"type":"Point","coordinates":[-2.0822902719033514,53.74423519996589]},"properties":{"name":"HEBDEN BRIDGE BREWING COMPANY LIMITED","address":"SMITHY FARM LONG CAUSEWAY, BLACKSHAW HEAD, HEBDEN BRIDGE, WEST YORKSHIRE, UNITED KINGDOM, HX7 7JB","postcode":"HX7 7JB"}},{"type":"Feature","geometry":{"type":"Point","coordinates":[-2.0593862055807612,53.74948750670143]},"properties":{"name":"HEBDEN BRIDGE CAMPING COMPANY LIMITED","address":"7 HIGH STREET, BLACKSHAW HEAD, HEBDEN BRIDGE, WEST YORKSHIRE, UNITED KINGDOM, HX7 7HY","postcode":"HX7 7HY"}},{"type":"Feature","geometry":{"type":"Point","coordinates":[-2.0469028209887945,53.73568082337648]},"properties":{"name":"HEBDEN BRIDGE CHIROPRACTIC LTD","address":"POTBALL, JUMBLE HOLE ROAD, HEBDEN BRIDGE, WEST YORKSHIRE, HX7 6PS","postcode":"HX7 6PS"}},{"type":"Feature","geometry":{"type":"Point","coordinates":[-2.0130454042552515,53.7425331521066]},"properties":{"name":"HEBDEN BRIDGE COMMUNITY ASSOCIATION LTD","address":"HEBDEN BRIDGE TOWN HALL, ST. GEORGES STREET, HEBDEN BRIDGE, WEST YORKSHIRE, HX7 7BY","postcode":"HX7 7BY"}},{"type":"Feature","geometry":{"type":"Point","coordinates":[-2.011082580604922,53.740330625489364]},"properties":{"name":"HEBDEN BRIDGE DENTAL CARE LTD","address":"16 NEW ROAD, HEBDEN BRIDGE, WEST YORKSHIRE, HX7 8AD","postcode":"HX7 8AD"}},{"type":"Feature","geometry":{"type":"Point","coordinates":[-1.9972607159452545,53.756248806686266]},"properties":{"name":"HEBDEN BRIDGE EQUESTRIAN CENTRE LIMITED","address":"ALLSWELL FARM, WADSWORTH, HEBDEN BRIDGE, WEST YORKSHIRE, UNITED KINGDOM, HX7 8TF","postcode":"HX7 8TF"}},{"type":"Feature","geometry":{"type":"Point","coordinates":[-1.9917199080512085,53.74132466954513]},"properties":{"name":"HEBDEN BRIDGE GOLF CLUB (2015) LIMITED","address":"GREAT MOUNT, WADSWORTH, HEBDEN BRIDGE, WEST YORKSHIRE, HX7 8PH","postcode":"HX7 8PH"}},{"type":"Feature","geometry":{"type":"Point","coordinates":[-1.991743758586598,53.741278092959384]},"properties":{"name":"HEBDEN BRIDGE GOLF CLUB LIMITED","address":"GREAT MOUNT, WADSWORTH, HEBDEN BRIDGE, WEST YORKSHIRE, HX7 8PH","postcode":"HX7 8PH"}},{"type":"Feature","geometry":{"type":"Point","coordinates":[-2.0128746978020935,53.74382736309572]},"properties":{"name":"HEBDEN BRIDGE MASONIC HALL ASSOCIATION LIMITED","address":"THE MASONIC HALL, HANGINGROYD LANE, HEBDEN BRIDGE WEST YORKS, HX7 7DD","postcode":"HX7 7DD"}},{"type":"Feature","geometry":{"type":"Point","coordinates":[-2.0172490849749396,53.74050491704951]},"properties":{"name":"HEBDEN BRIDGE PARTNERSHIP LTD","address":"2 HEBBLE END, HEBDEN BRIDGE, WEST YORKSHIRE, HX7 6HJ","postcode":"HX7 6HJ"}},{"type":"Feature","geometry":{"type":"Point","coordinates":[-2.01319837406762,53.737875402656236]},"properties":{"name":"HEBDEN BRIDGE PATTERNS LIMITED","address":"PALACE HOUSE ROAD, HEBDEN BRIDGE, WEST YORKSHIRE, HX7 6HW","postcode":"HX7 6HW"}},{"type":"Feature","geometry":{"type":"Point","coordinates":[-2.013840502440851,53.74363191297151]},"properties":{"name":"HEBDEN BRIDGE PIANO FESTIVAL","address":"3 REGENT PLACE, HEBDEN BRIDGE, WEST YORKSHIRE, HX7 7DF","postcode":"HX7 7DF"}},{"type":"Feature","geometry":{"type":"Point","coordinates":[-2.0111042253384572,53.74730317652458]},"properties":{"name":"HEBDEN BRIDGE SCHOOL LIMITED","address":"1 MONTROSE BUILDINGS, HEBDEN BRIDGE, HX7 8LW","postcode":"HX7 8LW"}},{"type":"Feature","geometry":{"type":"Point","coordinates":[-2.0237169621226294,53.7427301118289]},"properties":{"name":"HEBDEN DATA SERVICES LIMITED","address":"14 COLDEN CLOSE, HEBDEN BRIDGE, WEST YORKSHIRE, UNITED KINGDOM, HX7 6DY","postcode":"HX7 6DY"}},{"type":"Feature","geometry":{"type":"Point","coordinates":[-2.0100758146384,53.74247296535094]},"properties":{"name":"HEBDEN MANAGEMENT SOLUTIONS LIMITED","address":"9 CLIFFE STREET, HEBDEN BRIDGE, WEST YORKSHIRE, HX7 8BY","postcode":"HX7 8BY"}},{"type":"Feature","geometry":{"type":"Point","coordinates":[-2.013125207706131,53.749997477890304]},"properties":{"name":"HEBDEN MILLS LIMITED","address":"BROOK LEIGH, LEE MILL ROAD, HEBDEN BRIDGE, WEST YORKSHIRE, HX7 7AB","postcode":"HX7 7AB"}},{"type":"Feature","geometry":{"type":"Point","coordinates":[-1.9798646908532955,53.73665149150559]},"properties":{"name":"HEBDEN RENOVATION COMPANY LIMITED","address":"BANK COTTAGE, OFF RAW LANE, MYTHOLMROYD, HEBDEN BRIDGE, WEST YORKSHIRE, HX7 5RF","postcode":"HX7 5RF"}},{"type":"Feature","geometry":{"type":"Point","coordinates":[-2.0159111681273227,53.74162608007054]},"properties":{"name":"HEBDEN ROYD & DISTRICT SWIMMING POOL ASSOCIATION LIMITED","address":"BARCLAYS BANK CHAMBERS, MARKET STREET, HEBDEN BRIDGE, WEST YORKSHIRE, HX7 6AD","postcode":"HX7 6AD"}},{"type":"Feature","geometry":{"type":"Point","coordinates":[-2.013165698817613,53.744296272798756]},"properties":{"name":"HEBDEN ROYD DEVELOPMENT LIMITED LIABILITY PARTNERSHIP","address":"LINDEN MILL, LINDEN ROAD, HEBDEN BRIDGE, WEST YORKSHIRE, HX7 7DP","postcode":"HX7 7DP"}},{"type":"Feature","geometry":{"type":"Point","coordinates":[-2.0157110834734824,53.741550208599705]},"properties":{"name":"HEBDEN ROYD SWIMMING POOL LIMITED","address":"BARCLAYS BANK CHAMBERS, MARKET STREET, HEBDEN BRIDGE, WEST YORKSHIRE, HX7 6AD","postcode":"HX7 6AD"}},{"type":"Feature","geometry":{"type":"Point","coordinates":[-2.0122560588202445,53.740390673418034]},"properties":{"name":"HEBDEN VALLEY IT SOLUTIONS LIMITED","address":"4 BUTLERS WHARF, NEW ROAD, HEBDEN BRIDGE, ENGLAND, HX7 8AF","postcode":"HX7 8AF"}},{"type":"Feature","geometry":{"type":"Point","coordinates":[-2.022428483340556,53.74099775655372]},"properties":{"name":"HEBDENSOFT LIMITED","address":"15 CAMBRIDGE STREET, HEBDEN BRIDGE, WEST YORKSHIRE, ENGLAND, HX7 6LN","postcode":"HX7 6LN"}},{"type":"Feature","geometry":{"type":"Point","coordinates":[-2.033569680789849,53.73742708424671]},"properties":{"name":"HEIGHT SAFETY FACILITIES LTD","address":"8 THISTLE BOTTOM, HEBDEN BRIDGE, WEST YORKSHIRE, UNITED KINGDOM, HX7 6NH","postcode":"HX7 6NH"}},{"type":"Feature","geometry":{"type":"Point","coordinates":[-1.9865711794658532,53.72933039276522]},"properties":{"name":"HENRY HELLIWELL LIMITED","address":"3 THRUSH HILL ROAD, MYTHOLMROYD, WEST YORKSHIRE, UNITED KINGDOM, HX7 5AQ","postcode":"HX7 5AQ"}},{"type":"Feature","geometry":{"type":"Point","coordinates":[-2.020267415901456,53.745472237809054]},"properties":{"name":"HEPTONSTALL ALLOTMENT & GARDEN SOCIETY LIMITED","address":"HEPTONSTALL SOCIAL & BOWLING CLUB ACRE LANE, HEPTONSTALL, HEBDEN BRIDGE, WEST YORKSHIRE, HX7 7LT","postcode":"HX7 7LT"}},{"type":"Feature","geometry":{"type":"Point","coordinates":[-2.0172543061891077,53.74170816916734]},"properties":{"name":"HG1 PROPERTY SOLUTIONS LTD","address":"5 THE MILL, BRUNSWICK STREET, HEBDEN BRIDGE, WEST YORKSHIRE, HX7 6AF","postcode":"HX7 6AF"}},{"type":"Feature","geometry":{"type":"Point","coordinates":[-1.982628372767998,53.73080046501488]},"properties":{"name":"HOBSON FAMILY BAKERS LTD","address":"17 BURNLEY ROAD, MYTHOLMROYD, HEBDEN BRIDGE, WEST YORKSHIRE, UNITED KINGDOM, HX7 5LH","postcode":"HX7 5LH"}},{"type":"Feature","geometry":{"type":"Point","coordinates":[-2.0124236477551265,53.74376220574509]},"properties":{"name":"HODGSON HEATING LIMITED","address":"BURLEES HOUSE, HANGINGROYD LANE, HEBDEN BRIDGE, WEST YORKSHIRE, HX7 7DD","postcode":"HX7 7DD"}},{"type":"Feature","geometry":{"type":"Point","coordinates":[-2.0156173842419323,53.74776874712787]},"properties":{"name":"HOLLINS MANAGEMENT LIMITED","address":"12 HOLLINS, HEBDEN BRIDGE, WEST YORKSHIRE, HX7 7DZ","postcode":"HX7 7DZ"}},{"type":"Feature","geometry":{"type":"Point","coordinates":[-1.9995218362430809,53.74020919183106]},"properties":{"name":"HOLME HOUSE PROPERTIES (HEBDEN BRIDGE) LIMITED","address":"STEPHENSON HOUSE, BURLEES LANE, HEBDEN BRIDGE, WEST YORKSHIRE, HX7 8PS","postcode":"HX7 8PS"}},{"type":"Feature","geometry":{"type":"Point","coordinates":[-2.01132508516682,53.747347915996464]},"properties":{"name":"HOLME STREET ARTS CENTRE LTD","address":"WOODVILLE, 6 KEIGHLEY ROAD, HEBDEN BRIDGE, WEST YORKSHIRE, HX7 8LL","postcode":"HX7 8LL"}},{"type":"Feature","geometry":{"type":"Point","coordinates":[-2.0159139879762016,53.741491133456286]},"properties":{"name":"HOLMES TEC LIMITED","address":"BARCLAYS BANK CHAMBERS, MARKET STREET, HEBDEN BRIDGE, WEST YORKSHIRE, HX7 6AD","postcode":"HX7 6AD"}},{"type":"Feature","geometry":{"type":"Point","coordinates":[-2.01515972971016,53.74586233049636]},"properties":{"name":"HOTTIES THERMAL PACKS LIMITED","address":"1 SLATER BANK, HEBDEN BRIDGE, WEST YORKSHIRE, HX7 7DY","postcode":"HX7 7DY"}},{"type":"Feature","geometry":{"type":"Point","coordinates":[-2.0157024904878096,53.74115264057978]},"properties":{"name":"HOUR CAR (UN) LIMITED","address":"SALEM COMMUNITY CENTRE, CENTRAL STREET, HEBDEN BRIDGE, WEST YORKSHIRE, HX7 6HB","postcode":"HX7 6HB"}},{"type":"Feature","geometry":{"type":"Point","coordinates":[-1.9886937194476562,53.72473216288553]},"properties":{"name":"HOUSE OF PLANTS LIMITED(THE)","address":"HOO HOLE WORKS, CRAGG ROAD, MYTHOLMROYD, W YORKS, HX7 5JT","postcode":"HX7 5JT"}},{"type":"Feature","geometry":{"type":"Point","coordinates":[-1.9993662423969958,53.710903671603155]},"properties":{"name":"HOVERFLIES LIMITED","address":"UPPER LUMB BARN UPPER LUMB LANE, CRAGG VALE, HEBDEN BRIDGE, WEST YORKSHIRE, UNITED KINGDOM, HX7 5SH","postcode":"HX7 5SH"}},{"type":"Feature","geometry":{"type":"Point","coordinates":[-2.017168325685003,53.741662396760745]},"properties":{"name":"HRR LIMITED","address":"5 THE MILL, BRUNSWICK STREET, HEBDEN BRIDGE, WEST YORKSHIRE, UNITED KINGDOM, HX7 6AF","postcode":"HX7 6AF"}},{"type":"Feature","geometry":{"type":"Point","coordinates":[-2.0172619605365143,53.740506867386706]},"properties":{"name":"I Q EQUITY LIMITED","address":"BEEHIVE MILLS, HEBBLE END, HEBDEN BRIDGE, WEST YORKSHIRE, UNITED KINGDOM, HX7 6HJ","postcode":"HX7 6HJ"}},{"type":"Feature","geometry":{"type":"Point","coordinates":[-2.0233191356737885,53.741246036207876]},"properties":{"name":"IAN APPLEBY LTD","address":"11 TRINITY STREET, HEBDEN BRIDGE, HALIFAX, HX7 6LP","postcode":"HX7 6LP"}},{"type":"Feature","geometry":{"type":"Point","coordinates":[-1.9998055262072805,53.70528064829057]},"properties":{"name":"IAN LUMB GASHOLDERS LIMITED","address":"STONE HAVEN, CHURCH BANK, CRAGG VALE, HEBDEN BRIDGE, HX7 5TF","postcode":"HX7 5TF"}},{"type":"Feature","geometry":{"type":"Point","coordinates":[-2.0140173523983385,53.74114403336813]},"properties":{"name":"IFONEZ LTD","address":"21A WEST END, HEBDEN BRIDGE, UNITED KINGDOM, HX7 8UQ","postcode":"HX7 8UQ"}},{"type":"Feature","geometry":{"type":"Point","coordinates":[-2.012302695605471,53.74201233455939]},"properties":{"name":"IL MULINO (HEBDEN BRIDGE) LIMITED","address":"BRIDGE MILL, ST GEORGE'S SQUARE, HEBDEN BRIDGE, WEST YORKSHRIE, HX7 8ET","postcode":"HX7 8ET"}},{"type":"Feature","geometry":{"type":"Point","coordinates":[-2.0199785158620043,53.741392306007064]},"properties":{"name":"ILC LEARNING LIMITED","address":"95 BRIDGE LANES, BRIDGE LANES, HEBDEN BRIDGE, WEST YORKSHIRE, HX7 6AT","postcode":"HX7 6AT"}},{"type":"Feature","geometry":{"type":"Point","coordinates":[-1.9823091254027814,53.730933397581026]},"properties":{"name":"INDEPENDENT INTERIM MANAGEMENT ASSOCIATES LIMITED","address":"17 BURNLEY ROAD, MYTHOLMROYD, HEBDEN BRIDGE, WEST YORKSHIRE, HX7 5LH","postcode":"HX7 5LH"}},{"type":"Feature","geometry":{"type":"Point","coordinates":[-2.0222275651106845,53.74115052173607]},"properties":{"name":"INDEPENDENT RACK SURVEYS LIMITED","address":"3 OXFORD STREET, HEBDEN BRIDGE, WEST YORKSHIRE, HX7 6LL","postcode":"HX7 6LL"}},{"type":"Feature","geometry":{"type":"Point","coordinates":[-1.9742089768093738,53.73084358322318]},"properties":{"name":"INNOVATION CIGARETTES LTD","address":"69 BURNLEY ROAD, MYTHOLMROYD, HEBDEN BRIDGE, WEST YORKSHIRE, ENGLAND, HX7 5PD","postcode":"HX7 5PD"}},{"type":"Feature","geometry":{"type":"Point","coordinates":[-1.9988452971872535,53.74911978930127]},"properties":{"name":"INS RESOURCE PLANNING LIMITED","address":"3 CHISERLEY GARDENS, WADSWORTH, HEBDEN BRIDGE, UNITED KINGDOM, HX7 8RU","postcode":"HX7 8RU"}},{"type":"Feature","geometry":{"type":"Point","coordinates":[-2.0210962846025975,53.74173611948506]},"properties":{"name":"INSPIRING HEALTH LIMITED","address":"23 CALDER PLACE, HEBDEN BRIDGE, HX7 6AY","postcode":"HX7 6AY"}},{"type":"Feature","geometry":{"type":"Point","coordinates":[-1.9736674215260421,53.72969761034734]},"properties":{"name":"INSTANT AVAILABILITY LIMITED","address":"MODERNA BUSINESS PARK, UNIT 17A, MYTHOLMROYD, WEST YORKSHIRE, HX7 5QQ","postcode":"HX7 5QQ"}},{"type":"Feature","geometry":{"type":"Point","coordinates":[-2.048440499938278,53.754995273871735]},"properties":{"name":"INTERIGINAL LTD","address":"2 EDGE HEY GREEN, HEBDEN BRIDGE, WEST YORKSHIRE, UNITED KINGDOM, HX7 7HJ","postcode":"HX7 7HJ"}},{"type":"Feature","geometry":{"type":"Point","coordinates":[-2.0169663704669825,53.741238707629364]},"properties":{"name":"INTERNATIONAL CASHMERE FIBRES LIMITED","address":"BARCLAYS BANK CHAMBERS, HEBDEN BRIDGE, HALIFAX, WEST YORKSHIRE, HX7 6AA","postcode":"HX7 6AA"}},{"type":"Feature","geometry":{"type":"Point","coordinates":[-2.0171814950843414,53.74046833718194]},"properties":{"name":"IQ EQUITY ENTERPRISES LTD","address":"BEEHIVE MILLS, HEBBLE END, HALIFAX, WEST YORKSHIRE, HX7 6HJ","postcode":"HX7 6HJ"}},{"type":"Feature","geometry":{"type":"Point","coordinates":[-2.0159268109219655,53.741553905323116]},"properties":{"name":"ISES PROCUREMENT LIMITED","address":"BARCLAYS BANK CHAMBERS, MARKET STREET, HEBDEN BRIDGE, WEST YORKSHIRE, ENGLAND, HX7 6AD","postcode":"HX7 6AD"}},{"type":"Feature","geometry":{"type":"Point","coordinates":[-2.075595378456779,53.75908264888967]},"properties":{"name":"ISOMAIN LIMITED","address":"RODMER CLOUGH FARM, COLDEN, HEBDEN BRIDGE, HX7 7PJ","postcode":"HX7 7PJ"}},{"type":"Feature","geometry":{"type":"Point","coordinates":[-2.0040805919749745,53.75383814499127]},"properties":{"name":"ISTHMUS BOOKS LTD","address":"6 WATERLOO BANK, OLD TOWN, HEBDEN BRIDGE, HX7 8ST","postcode":"HX7 8ST"}},{"type":"Feature","geometry":{"type":"Point","coordinates":[-2.0131564736103327,53.74253385260693]},"properties":{"name":"ITAXI247 LTD","address":"THE TOWN HALL, ST. GEORGE'S STREET, HEBDEN BRIDGE, WEST YORKSHIRE, UNITED KINGDOM, HX7 7BY","postcode":"HX7 7BY"}},{"type":"Feature","geometry":{"type":"Point","coordinates":[-1.9758612216653837,53.734140657751794]},"properties":{"name":"ITERATIVE MOTION LIMITED","address":"6 LEE CLOUGH DRIVE, HEBDEN BRIDGE, WEST YORKSHIRE, HX7 5PP","postcode":"HX7 5PP"}},{"type":"Feature","geometry":{"type":"Point","coordinates":[-1.9826834379339007,53.73090890314715]},"properties":{"name":"J & M ESTATES LIMITED","address":"7 BURNLEY ROAD, MYTHOLMROYD, HEBDEN BRIDGE, WEST YORKSHIRE, HX7 5LH","postcode":"HX7 5LH"}},{"type":"Feature","geometry":{"type":"Point","coordinates":[-2.0170587871200754,53.74142840685478]},"properties":{"name":"J G ELECTRICAL (TODMORDEN) LIMITED","address":"BARCLAYS BANK CHAMBERS, MARKET STREET, HEBDEN BRIDGE, WEST YORKSHIRE, UNITED KINGDOM, HX7 6AA","postcode":"HX7 6AA"}},{"type":"Feature","geometry":{"type":"Point","coordinates":[-2.0158068696036495,53.741522691724406]},"properties":{"name":"J. LERY LIMITED","address":"BARCLAYS BANK CHAMBERS, MARKET STREET, HEBDEN BRIDGE, WEST YORKSHIRE, HX7 6AD","postcode":"HX7 6AD"}},{"type":"Feature","geometry":{"type":"Point","coordinates":[-2.019952283462645,53.74087072278465]},"properties":{"name":"J.A. WHITEHEAD SERVICES (LITTLETOWN) LIMITED","address":"CALDER MILL, STUBBING HOLME, HEBDEN BRIDGE, WEST YORKSHIRE, HX7 6LQ","postcode":"HX7 6LQ"}},{"type":"Feature","geometry":{"type":"Point","coordinates":[-2.011737911412966,53.74364976120719]},"properties":{"name":"JAMES SHEPHERD OF HEBDEN BRIDGE LIMITED","address":"VALLEY ROAD GARAGE, HEBDEN BRIDGE, YORKSHIRE, HX7 7BZ","postcode":"HX7 7BZ"}},{"type":"Feature","geometry":{"type":"Point","coordinates":[-2.015949067991272,53.741502415444074]},"properties":{"name":"JAMIE STANTON LIMITED","address":"BARCLAYS BANK CHAMBERS, MARKET STREET, HEBDEN BRIDGE, WEST YORKSHIRE, HX7 6AD","postcode":"HX7 6AD"}},{"type":"Feature","geometry":{"type":"Point","coordinates":[-2.0714616382245894,53.753708833111055]},"properties":{"name":"JAYARAITCH LIMITED","address":"HILLTOP FARM, BLACKSHAW HEAD, HEBDEN BRIDGE, WEST YORKS, HX7 7HR","postcode":"HX7 7HR"}},{"type":"Feature","geometry":{"type":"Point","coordinates":[-2.01479654650053,53.745324042173564]},"properties":{"name":"JAYMAG LIMITED","address":"10 SLATER AVENUE, HEBDEN BRIDGE, UNITED KINGDOM, HX7 7DU","postcode":"HX7 7DU"}},{"type":"Feature","geometry":{"type":"Point","coordinates":[-2.0159491395372022,53.741577510323324]},"properties":{"name":"JBP PSYCHOLOGICAL THERAPIES LIMITED","address":"BARCLAYS BANK CHAMBERS, MARKET STREET, HEBDEN BRIDGE, WEST YORKSHIRE, ENGLAND, HX7 6AD","postcode":"HX7 6AD"}},{"type":"Feature","geometry":{"type":"Point","coordinates":[-2.0088192145409907,53.74726900621156]},"properties":{"name":"JERONIMO'S LIMITED","address":"2 BETHEL TERRACE, HEBDEN BRIDGE, ENGLAND, HX7 8HT","postcode":"HX7 8HT"}},{"type":"Feature","geometry":{"type":"Point","coordinates":[-1.9808060749709147,53.73187552550872]},"properties":{"name":"JLH SYSTEMS LIMITED","address":"18 , JUBILEE ST, MYTHOLMROYD, HEBDEN BRIDGE, W.YORKS., HX7 5NP","postcode":"HX7 5NP"}},{"type":"Feature","geometry":{"type":"Point","coordinates":[-2.0828168748931954,53.74760819741094]},"properties":{"name":"JMK AGGREGATES LIMITED","address":"EARNSHAW HALL MOORCOCK ROAD, BLACKSHAWHEAD, HEBDEN BRIDGE, WEST YORKSHIRE, HX7 7JA","postcode":"HX7 7JA"}},{"type":"Feature","geometry":{"type":"Point","coordinates":[-1.9757483794594135,53.73009159004876]},"properties":{"name":"JN PROPERTIES LIMITED","address":"3 RICHMOND HOUSE, CALDENE BUSINESS PARK MYTHOLMROYD, HEBDEN BRIDGE, WEST YORKSHIRE, HX7 5QJ","postcode":"HX7 5QJ"}},{"type":"Feature","geometry":{"type":"Point","coordinates":[-1.9810133002935195,53.73161152685257]},"properties":{"name":"JOE STANDERLINE LTD","address":"6 ZION TERRACE, MYTHOLMROYD, HEBDEN BRIDGE, WEST YORKSHIRE, HX7 5NU","postcode":"HX7 5NU"}},{"type":"Feature","geometry":{"type":"Point","coordinates":[-2.002501244439763,53.74288832981991]},"properties":{"name":"JOHN LORD AND SON LIMITED","address":"23 MANOR DRIVE, HEBDEN BRIDGE, WEST YORKSHIRE, HX7 8DW","postcode":"HX7 8DW"}},{"type":"Feature","geometry":{"type":"Point","coordinates":[-1.9977287622520863,53.70693472581638]},"properties":{"name":"JOHN MURRAY SOCIAL WORK CONSULTANCY LIMITED","address":"1-3 BANK BOTTOM, HEBDEN BRIDGE, ENGLAND, HX7 5SU","postcode":"HX7 5SU"}},{"type":"Feature","geometry":{"type":"Point","coordinates":[-1.981672975705948,53.72791708779624]},"properties":{"name":"JOHN VEITCH LIMITED","address":"ORCHARD BUSINESS PARK, MYTHOLMROYD, HALIFAX, WEST YORKSHIRE, HX7 5HZ","postcode":"HX7 5HZ"}},{"type":"Feature","geometry":{"type":"Point","coordinates":[-2.010512947801766,53.74334035599475]},"properties":{"name":"JON HAIRSINE LTD","address":"BROOKLYN, BIRCHCLIFFE ROAD, HEBDEN BRIDGE, WEST YORKSHIRE, HX7 8DB","postcode":"HX7 8DB"}},{"type":"Feature","geometry":{"type":"Point","coordinates":[-1.9998090744136223,53.70540324313168]},"properties":{"name":"JON KNOWLES TRAINING LIMITED","address":"BIRKROYD CHURCH BANK, CRAGG VALE, HEBDEN BRIDGE, WEST YORKSHIRE, HX7 5TF","postcode":"HX7 5TF"}},{"type":"Feature","geometry":{"type":"Point","coordinates":[-1.996666440494877,53.707607130835]},"properties":{"name":"JOURNEY CONSULTING LIMITED","address":"WESLEY HOUSE, CRAGG VALE, HEBDEN BRIDGE, WEST YORKSHIRE, HX7 5SR","postcode":"HX7 5SR"}},{"type":"Feature","geometry":{"type":"Point","coordinates":[-2.0125315539726603,53.74127065528966]},"properties":{"name":"JOYCES CLOSET LIMITED","address":"6 CHEETHAM STREET, HEBDEN BRIDGE, WEST YORKSHIRE, HX7 8EW","postcode":"HX7 8EW"}},{"type":"Feature","geometry":{"type":"Point","coordinates":[-2.011562456567931,53.745561104785914]},"properties":{"name":"JP RENOVATIONS LIMITED","address":"3 BROUGHTON STREET, HEBDEN BRIDGE, WEST YORKSHIRE, HX7 8JY","postcode":"HX7 8JY"}},{"type":"Feature","geometry":{"type":"Point","coordinates":[-2.026959210255657,53.74360496843517]},"properties":{"name":"JP WAIN LTD","address":"MYTHOLM HOUSE, MYTHOLM BANK, HEBDEN BRIDGE, WEST YORKSHIRE, ENGLAND, HX7 6DL","postcode":"HX7 6DL"}},{"type":"Feature","geometry":{"type":"Point","coordinates":[-2.0127125301689026,53.74379537489226]},"properties":{"name":"JPB PROGRAMME MANAGEMENT LTD","address":"C/O FITTON & CO, BURLEES HOUSE, HANGINGROYD LANE, HEBDEN BRIDGE, ENGLAND, HX7 7DD","postcode":"HX7 7DD"}},{"type":"Feature","geometry":{"type":"Point","coordinates":[-2.0566710573572866,53.755454739056745]},"properties":{"name":"JPM MEDICAL LIMITED","address":"2 EDGE LANE, HEPTONSTALL, HEBDEN BRIDGE, WEST YORKSHIRE, HX7 7PF","postcode":"HX7 7PF"}},{"type":"Feature","geometry":{"type":"Point","coordinates":[-1.9827176582946127,53.73092359716402]},"properties":{"name":"JSB INTERIORS LTD","address":"17 BURNLEY ROAD BURNLEY ROAD, MYTHOLMROYD, HEBDEN BRIDGE, WEST YORKSHIRE, HX7 5LH","postcode":"HX7 5LH"}},{"type":"Feature","geometry":{"type":"Point","coordinates":[-1.9826302512462837,53.731031145143206]},"properties":{"name":"JT GROUNDWORKS (HB) LTD","address":"17 BURNLEY ROAD, MYTHOLMROYD, HEBDEN BRIDGE, UNITED KINGDOM, HX7 5LH","postcode":"HX7 5LH"}},{"type":"Feature","geometry":{"type":"Point","coordinates":[-1.9815185604427688,53.727816615779936]},"properties":{"name":"JVL HOLDINGS LIMITED","address":"ORCHARD BUSINESS PARK, MYTHOLMROYD, HALIFAX, WEST YORKSHIRE, HX7 5HZ","postcode":"HX7 5HZ"}},{"type":"Feature","geometry":{"type":"Point","coordinates":[-1.9816424109440793,53.72786596423269]},"properties":{"name":"JVL INTERNATIONAL LIMITED","address":"ORCHARD BUSINESS PARK, MYTHOLMROYD, HALIFAX, WEST YORKSHIRE, UNITED KINGDOM, HX7 5HZ","postcode":"HX7 5HZ"}},{"type":"Feature","geometry":{"type":"Point","coordinates":[-1.9751183881050154,53.72738777334988]},"properties":{"name":"K MORLEY CONSULTING LIMITED","address":"BIRCH HOUSE SCOUT BOTTOM LANE SCOUT ROAD, MYTHOLMROYD, HEBDEN BRIDGE, WEST YORKSHIRE, HX7 5JS","postcode":"HX7 5JS"}},{"type":"Feature","geometry":{"type":"Point","coordinates":[-2.015749536145868,53.74151685236143]},"properties":{"name":"KAHUNA HUTS LIMITED","address":"BARCLAYS BANK CHAMBERS, HEBDEN BRIDGE, WEST YORKSHIRE, ENGLAND, HX7 6AD","postcode":"HX7 6AD"}},{"type":"Feature","geometry":{"type":"Point","coordinates":[-2.0266801092007074,53.7436321616121]},"properties":{"name":"KAREN HOUGHTON IN PARTNERSHIP LIMITED","address":"GLEN BRAES, MYTHOLM BANK, HEBDEN BRIDGE, HX7 6DL","postcode":"HX7 6DL"}},{"type":"Feature","geometry":{"type":"Point","coordinates":[-2.0122117094069103,53.7426690292559]},"properties":{"name":"KATHY MYTTON ART & DESIGN LIMITED","address":"SUITE 1 HAWKSTONE HOUSE, VALLEY ROAD, HEBDEN BRIDGE, HX7 7BL","postcode":"HX7 7BL"}},{"type":"Feature","geometry":{"type":"Point","coordinates":[-2.0041844631069217,53.74197637988036]},"properties":{"name":"KAWA CREATIVE LTD","address":"12 HIRST GROVE, HEBDEN BRIDGE, WEST YORKSHIRE, HX7 8DN","postcode":"HX7 8DN"}},{"type":"Feature","geometry":{"type":"Point","coordinates":[-2.0159939895050414,53.741329029471764]},"properties":{"name":"KAYELL LIMITED","address":"BARCLAYS BANK CHAMBERS, MARKET STREET, HEBDEN BRIDGE, WEST YORKSHIRE, HX7 6AD","postcode":"HX7 6AD"}},{"type":"Feature","geometry":{"type":"Point","coordinates":[-2.0156234938033926,53.74141171694867]},"properties":{"name":"KEMPSTER BOWERS & CO (UK) LIMITED","address":"BARCLAYS BANK CHAMBERS, MARKET STREET, HEBDEN BRIDGE, WEST YORKSHIRE, ENGLAND, HX7 6AD","postcode":"HX7 6AD"}},{"type":"Feature","geometry":{"type":"Point","coordinates":[-2.0156883652523274,53.74132911656594]},"properties":{"name":"KEMPSTER BOWERS & CO LLP","address":"BARCLAYS BANK CHAMBERS, MARKET STREET, HEBDEN BRIDGE, WEST YORKSHIRE, HX7 6AD","postcode":"HX7 6AD"}},{"type":"Feature","geometry":{"type":"Point","coordinates":[-2.0204424700160404,53.74109072183143]},"properties":{"name":"KEVIN WHITEHEAD LIMITED","address":"CALDER MILL, STUBBING HOLME, HEBDEN BRIDGE, WEST YORKSHIRE, HX7 6LQ","postcode":"HX7 6LQ"}},{"type":"Feature","geometry":{"type":"Point","coordinates":[-2.026786460279121,53.7435286868857]},"properties":{"name":"KHIP PROJECT MANAGEMENT SERVICES LIMITED","address":"GLEN BRAES, MYTHOLM BANK, HEBDEN BRIDGE, WEST YORKSHIRE, ENGLAND, HX7 6DL","postcode":"HX7 6DL"}},{"type":"Feature","geometry":{"type":"Point","coordinates":[-2.0086941772411198,53.747018135947556]},"properties":{"name":"KIKU DESIGN LIMITED","address":"DANE HURST, HURST ROAD, HEBDEN BRIDGE, WEST YORKSHIRE, HX7 8HU","postcode":"HX7 8HU"}},{"type":"Feature","geometry":{"type":"Point","coordinates":[-2.010682031879172,53.7426520812906]},"properties":{"name":"KIM DELAHAYE LTD","address":"2 ST. JOHNS CLOSE, HEBDEN BRIDGE, WEST YORKSHIRE, UNITED KINGDOM, HX7 8DP","postcode":"HX7 8DP"}},{"type":"Feature","geometry":{"type":"Point","coordinates":[-2.016201969140613,53.74157079728355]},