{"type":"featureCollection","features":[{"type":"Feature","geometry":{"type":"Point","coordinates":[-2.0590438925107875,53.75509945817732]},"properties":{"name":"1000FEETUP LIMITED","address":"1 BROADSTONE COTTAGE, HEBDEN BRIDGE, WEST YORKSHIRE, HX7 7PQ","postcode":"HX7 7PQ"}},{"type":"Feature","geometry":{"type":"Point","coordinates":[-2.0132193070600617,53.738076155434136]},"properties":{"name":"10TH FLOOR IT CONSULTING LIMITED","address":"THE OLD PRESBYTERY, 15 PALACE HOUSE ROAD, HEBDEN BRIDGE, WEST YORKSHIRE, HX7 6HW","postcode":"HX7 6HW"}},{"type":"Feature","geometry":{"type":"Point","coordinates":[-2.010754026881628,53.745540956011475]},"properties":{"name":"2 TEMPO LIMITED","address":"18 UNITY STREET, HEBDEN BRIDGE, WEST YORKSHIRE, HX7 8HQ","postcode":"HX7 8HQ"}},{"type":"Feature","geometry":{"type":"Point","coordinates":[-1.9867168975181502,53.72549246975235]},"properties":{"name":"360 PIXIE LIMITED","address":"UNIT 4C TOPLAND COUNTRY BUSINESS PARK, CRAGG VALE, HEBDEN BRIDGE, WEST YORKSHIRE, HX7 5RW","postcode":"HX7 5RW"}},{"type":"Feature","geometry":{"type":"Point","coordinates":[-2.000098415219149,53.7509397429527]},"properties":{"name":"3MT LIMITED","address":"2 GREEN END, HEBDEN BRIDGE, WEST YORKSHIRE, UNITED KINGDOM, HX7 8SQ","postcode":"HX7 8SQ"}},{"type":"Feature","geometry":{"type":"Point","coordinates":[-2.0384605246321446,53.74395888105502]},"properties":{"name":"5 TOLLINGTON PLACE MANAGEMENT LIMITED","address":"HIGH BARN LOWER RAWTONSTALL, BLACKSHAW HEAD, HEBDEN BRIDGE, WEST YORKSHIRE, HX7 7JR","postcode":"HX7 7JR"}},{"type":"Feature","geometry":{"type":"Point","coordinates":[-2.0171595547807595,53.74181902314979]},"properties":{"name":"A & P PROJECT MANAGEMENT LTD","address":"5 THE MILL, BRUNSWICK STREET, HEBDEN BRIDGE, WEST YORKSHIRE, HX7 6AF","postcode":"HX7 6AF"}},{"type":"Feature","geometry":{"type":"Point","coordinates":[-1.9735122894483133,53.72956023744348]},"properties":{"name":"A D PLASTIC SOLUTIONS LIMITED","address":"UNIT 7 MODERNA BUSINESS PARK, MODERNA WAY, MYTHOLMROYD, HEBDEN BRIDGE, WEST YORKSHIRE, HX7 5QQ","postcode":"HX7 5QQ"}},{"type":"Feature","geometry":{"type":"Point","coordinates":[-1.9827898983908416,53.73071346807456]},"properties":{"name":"A G UPHOLSTERY LIMITED","address":"17 BURNLEY ROAD, MYTHOLMROYD, HEBDEN BRIDGE, YORKS, UNITED KINGDOM, HX7 5LH","postcode":"HX7 5LH"}},{"type":"Feature","geometry":{"type":"Point","coordinates":[-2.012810841698878,53.74380468410576]},"properties":{"name":"A R B CONTRACTORS LIMITED","address":"BURLEES HOUSE, HANGINGROYD LANE, HEBDEN BRIDGE, WEST YORKSHIRE, HX7 7DD","postcode":"HX7 7DD"}},{"type":"Feature","geometry":{"type":"Point","coordinates":[-2.0046391465025213,53.74472711071473]},"properties":{"name":"ABACUS ACCESS LIMITED","address":"3 SANDY GATE, HEBDEN BRIDGE, WEST YORKSHIRE, UNITED KINGDOM, HX7 8HZ","postcode":"HX7 8HZ"}},{"type":"Feature","geometry":{"type":"Point","coordinates":[-1.977469086321713,53.7299981324277]},"properties":{"name":"ABACUS PICTURE FRAMING AND GALLERY LTD","address":"UNIT 6 WHITE LEE, MYTHOLMROYD, HEBDEN BRIDGE, WEST YORKSHIRE, HX7 5AD","postcode":"HX7 5AD"}},{"type":"Feature","geometry":{"type":"Point","coordinates":[-2.0160056002084294,53.741606452940886]},"properties":{"name":"ACADEMY OF CLINICAL EXCELLENCE LIMITED","address":"BARCLAYS BANK CHAMBERS, MARKET STREET, HEBDEN BRIDGE, WEST YORKSHIRE, HX7 6AD","postcode":"HX7 6AD"}},{"type":"Feature","geometry":{"type":"Point","coordinates":[-1.9826423692198745,53.730969075980774]},"properties":{"name":"ACCATURA LTD","address":"17 BURNLEY ROAD, MYTHOLMROYD, HEBDEN BRIDGE, UNITED KINGDOM, HX7 5LH","postcode":"HX7 5LH"}},{"type":"Feature","geometry":{"type":"Point","coordinates":[-1.999481852450044,53.74036222335088]},"properties":{"name":"ADAPTIVE TRAINING LIMITED","address":"IVY HOUSE, BURLEES LANE, HEBDEN BRIDGE, WEST YORKSHIRE, HX7 8PS","postcode":"HX7 8PS"}},{"type":"Feature","geometry":{"type":"Point","coordinates":[-1.9827061355780033,53.730744897905346]},"properties":{"name":"ADDITIVE TECHNOLOGIES LIMITED","address":"7A BURNLEY ROAD, MYTHOLMROYD, HEBDEN BRIDGE, WEST YORKSHIRE, UNITED KINGDOM, HX7 5LH","postcode":"HX7 5LH"}},{"type":"Feature","geometry":{"type":"Point","coordinates":[-2.0123998666364606,53.7425302634899]},"properties":{"name":"ADMIN FIRST LIMITED","address":"SUITE 8 VALLEY ROAD, HEBDEN BRIDGE, HEBDEN BRIDGE, WEST YORKS, ENGLAND, HX7 7BL","postcode":"HX7 7BL"}},{"type":"Feature","geometry":{"type":"Point","coordinates":[-2.0115456699795047,53.74150336892618]},"properties":{"name":"ADMINISTRATIVE CHOICE LIMITED","address":"4 GARDEN STREET, HEBDEN BRIDGE, HEBDEN BRIDGE, ENGLAND, HX7 8AQ","postcode":"HX7 8AQ"}},{"type":"Feature","geometry":{"type":"Point","coordinates":[-1.9835649904398254,53.72686978713479]},"properties":{"name":"ADVERGAMER LIMITED","address":"BANK HOUSE, HALL BANK LANE, HEBDEN BRIDGE, WEST YORKSHIRE, ENGLAND, HX7 5HQ","postcode":"HX7 5HQ"}},{"type":"Feature","geometry":{"type":"Point","coordinates":[-2.01140297080386,53.76492186875471]},"properties":{"name":"ADVOCACYALIGNED LIMITED","address":"PURPRISE FARM, PECKET WELL, HEBDEN BRIDGE, WEST YORKSHIRE, HX7 8RB","postcode":"HX7 8RB"}},{"type":"Feature","geometry":{"type":"Point","coordinates":[-2.0155423093970164,53.741534029896044]},"properties":{"name":"AGENCY SIGNS (UK) LTD","address":"BARCLAYS BANK CHAMBERS, MARKET STREET, HEBDEN BRIDGE, WEST YORKSHIRE, HX7 6AD","postcode":"HX7 6AD"}},{"type":"Feature","geometry":{"type":"Point","coordinates":[-2.021069606218481,53.7496703845572]},"properties":{"name":"AJPOPE SOCIAL WORK LIMITED","address":"2 SWAN FOLD, HEPTONSTALL, HEBDON BRIDGE, ENGLAND, HX7 7NP","postcode":"HX7 7NP"}},{"type":"Feature","geometry":{"type":"Point","coordinates":[-2.017409974284802,53.74072856900423]},"properties":{"name":"ALAN GARDNER ASSOCIATES LTD","address":"2C BEEHIVE MILLS, HEBBLE END, HEBDEN BRIDGE, WEST YORKSHIRE, ENGLAND, HX7 6HJ","postcode":"HX7 6HJ"}},{"type":"Feature","geometry":{"type":"Point","coordinates":[-2.0170153253806165,53.74069357062497]},"properties":{"name":"ALASKA EQUIPMENT LIMITED","address":"UNIT 3A BEEHIVE MILL, HEBBLE END, HEBDEN BRIDGE, WEST YORKSHIRE, ENGLAND, HX7 6HJ","postcode":"HX7 6HJ"}},{"type":"Feature","geometry":{"type":"Point","coordinates":[-2.020821784922491,53.75029539076047]},"properties":{"name":"ALISON GRANT ARCHITECTS LTD","address":"5 NORTHFIELD, HEPTONSTALL, HEBDEN BRIDGE, WEST YORKSHIRE, HX7 7NW","postcode":"HX7 7NW"}},{"type":"Feature","geometry":{"type":"Point","coordinates":[-2.0672847264909864,53.74442055988792]},"properties":{"name":"ANDERSON COMPUTER CONSULTANTS LIMITED","address":"6 PENNINE VIEW, BLACKSHAW HEAD, HEBDEN BRIDGE, HX7 7JS","postcode":"HX7 7JS"}},{"type":"Feature","geometry":{"type":"Point","coordinates":[-1.9831030738254019,53.730945492909996]},"properties":{"name":"ANDREW HEPTINSTALL FINANCIAL SERVICES LLP","address":"11 BRIDGE END, HEBDEN BRIDGE, WEST YORKSHIRE, HX7 5DR","postcode":"HX7 5DR"}},{"type":"Feature","geometry":{"type":"Point","coordinates":[-2.0225994351811267,53.749056289040894]},"properties":{"name":"ANDREW P MANNING CONTENT SOLUTIONS LTD","address":"24 CHURCH STREET, HEPTONSTALL, HEBDEN BRIDGE, WEST YORKSHIRE, UNITED KINGDOM, HX7 7NS","postcode":"HX7 7NS"}},{"type":"Feature","geometry":{"type":"Point","coordinates":[-1.9826066887040343,53.72982760065582]},"properties":{"name":"ANSELL CONSTRUCTION LIMITED","address":"7 NEW ROAD, MYTHOLMROYD, HEBDEN BRIDGE, WEST YORKSHIRE, HX7 5DZ","postcode":"HX7 5DZ"}},{"type":"Feature","geometry":{"type":"Point","coordinates":[-1.9924315864158566,53.69575482793592]},"properties":{"name":"ANTHA LIMITED","address":"CRAGGS COUNTRY BUSINESS PARK NEW ROAD, CRAGG VALE, HEBDEN BRIDGE, WEST YORKSHIRE, ENGLAND, HX7 5TT","postcode":"HX7 5TT"}},{"type":"Feature","geometry":{"type":"Point","coordinates":[-1.9827077264398172,53.73092688760337]},"properties":{"name":"AP BOLTON BUILDERS & CONTRACTORS LTD","address":"17 BURNLEY ROAD, MYTHOLMROYD, HEBDEN BRIDGE, WEST YORKSHIRE, ENGLAND, HX7 5LH","postcode":"HX7 5LH"}},{"type":"Feature","geometry":{"type":"Point","coordinates":[-2.011161994380229,53.74034914561687]},"properties":{"name":"AQUA DENTAL CLINIC LIMITED","address":"BARCLAYS BANK CHAMBERS, MARKET STREET, HEBDEN BRIDGE, WEST YORKSHIRE, HX7 8AD","postcode":"HX7 8AD"}},{"type":"Feature","geometry":{"type":"Point","coordinates":[-2.004820985338849,53.741838203544745]},"properties":{"name":"ARB CONSULTING ASSOCIATES LTD","address":"2 WADSWORTH LANE, HEBDEN BRIDGE, HALIFAX, WEST YORKSHIRE, HX7 8DL","postcode":"HX7 8DL"}},{"type":"Feature","geometry":{"type":"Point","coordinates":[-2.012095671964164,53.75264259377019]},"properties":{"name":"ARC PHYSIOTHERAPY LIMITED","address":"VALHALLA, LEE MILL ROAD, HEBDEN BRIDGE, WEST YORKSHIRE, UNITED KINGDOM, HX7 7AE","postcode":"HX7 7AE"}},{"type":"Feature","geometry":{"type":"Point","coordinates":[-2.0140896835438933,53.741798146689305]},"properties":{"name":"ARCHITECTONIC DESIGN LTD","address":"11-13 OLDGATE, HEBDEN BRIDGE, WEST YORKSHIRE, HX7 6EN","postcode":"HX7 6EN"}},{"type":"Feature","geometry":{"type":"Point","coordinates":[-1.9726773834175073,53.73051217044144]},"properties":{"name":"ARTOME LTD","address":"BRIER HEY HOUSE, BRIER HEY, HEBDEN BRIDGE, WEST YORKSHIRE, HX7 5PF","postcode":"HX7 5PF"}},{"type":"Feature","geometry":{"type":"Point","coordinates":[-2.0131593105315297,53.74440059654]},"properties":{"name":"ARTSMILL LIMITED","address":"ARTSMILL, LINDEN MILL, HEBDEN BRIDGE, WEST YORKSHIRE, HX7 7DP","postcode":"HX7 7DP"}},{"type":"Feature","geometry":{"type":"Point","coordinates":[-1.9858526407340211,53.7291054250826]},"properties":{"name":"ASPIRE PUBLISHING LTD","address":"59 ELPHABOROUGH CLOSE, MYTHOLMROYD, HALIFAX, WEST YORKSHIRE, UNITED KINGDOM, HX7 5JX","postcode":"HX7 5JX"}},{"type":"Feature","geometry":{"type":"Point","coordinates":[-1.9795137246430319,53.73301942871497]},"properties":{"name":"ASQUITH & SONS (MYTHOLMROYD) LIMITED","address":"40 BANKSFIELD CRESCENT, MYTHOLMROYD, HEBDEN BRIDGE, WEST YORKSHIRE, UNITED KINGDOM, HX7 5NG","postcode":"HX7 5NG"}},{"type":"Feature","geometry":{"type":"Point","coordinates":[-2.0137440818833827,53.746000295982206]},"properties":{"name":"ASTLEY HOUSE LIMITED","address":"VICTORIA WORKS VICTORIA ROAD, HEBDEN BRIDGE, HALIFAX, WEST YORKSHIRE, HX7 8LN","postcode":"HX7 8LN"}},{"type":"Feature","geometry":{"type":"Point","coordinates":[-2.0160004796773645,53.741468311869475]},"properties":{"name":"ATRAD SALES LIMITED","address":"BARCLAYS BANK CHAMBERS, MARKET STREET, HEBDEN BRIDGE, WEST YORKSHIRE, ENGLAND, HX7 6AD","postcode":"HX7 6AD"}},{"type":"Feature","geometry":{"type":"Point","coordinates":[-1.9866108201466604,53.72565318162619]},"properties":{"name":"AUTOMOTIVE MANUFACTURERS RACING ASSOCIATION LIMITED","address":"UNIT 10D TOPLANDS BUSINESS PARK, CRAGG VALE, HEBDEN BRIDGE, WEST YORKSHIRE, HX7 5RW","postcode":"HX7 5RW"}},{"type":"Feature","geometry":{"type":"Point","coordinates":[-2.0106425374742525,53.742671067959016]},"properties":{"name":"AVARICE (MANAGEMENT) LIMITED","address":"4 ST JOHNS CLOSE, HEBDEN BRIDGE, WEST YORKSHIRE, HX7 8DP","postcode":"HX7 8DP"}},{"type":"Feature","geometry":{"type":"Point","coordinates":[-2.016945789298065,53.741495527930965]},"properties":{"name":"AXARUS LIMITED","address":"BARCLAYS BANK CHAMBERS, MARKET STREET, HEBDEN BRIDGE, WEST YORKSHIRE, HX7 6AA","postcode":"HX7 6AA"}},{"type":"Feature","geometry":{"type":"Point","coordinates":[-1.9988183869156972,53.73665134242408]},"properties":{"name":"AXIS NORTH LIMITED","address":"3 FALLING ROYD, HEBDEN BRIDGE, ENGLAND, HX7 8NT","postcode":"HX7 8NT"}},{"type":"Feature","geometry":{"type":"Point","coordinates":[-1.9912931169499588,53.73045620960578]},"properties":{"name":"BABBLING BROOK NETWORK LTD","address":"5 NEST ESTATE, HEBDEN BRIDGE, WEST YORKSHIRE, HX7 5BH","postcode":"HX7 5BH"}},{"type":"Feature","geometry":{"type":"Point","coordinates":[-2.0131660252098467,53.741714140087424]},"properties":{"name":"BAMBOO (H.B.) LIMITED","address":"16A BRIDGE GATE, HEBDEN BRIDGE, WEST YORKSHIRE, HX7 8EX","postcode":"HX7 8EX"}},{"type":"Feature","geometry":{"type":"Point","coordinates":[-2.015930721850748,53.74148596446394]},"properties":{"name":"BARSERVICE CHC LIMITED","address":"BARCLAYS BANK CHAMBERS, MARKET STREET, HEBDEN BRIDGE, WEST YORKSHIRE, HX7 6AD","postcode":"HX7 6AD"}},{"type":"Feature","geometry":{"type":"Point","coordinates":[-2.0158999503104202,53.74153765976569]},"properties":{"name":"BDS LABORATORY LLP","address":"BARCLAYS BANK CHAMBERS, MARKET STREET, HEBDEN BRIDGE, WEST YORKSHIRE, HX7 6AD","postcode":"HX7 6AD"}},{"type":"Feature","geometry":{"type":"Point","coordinates":[-2.015898088072465,53.74148945824885]},"properties":{"name":"BDS LABS LIMITED","address":"BARCLAYS BANK CHAMBERS, MARKET STREET, HEBDEN BRIDGE, WEST YORKSHIRE, ENGLAND, HX7 6AD","postcode":"HX7 6AD"}},{"type":"Feature","geometry":{"type":"Point","coordinates":[-2.0030071786276316,53.75169255062753]},"properties":{"name":"BEARD ENTERPRISES LIMITED","address":"OLD TOWN MILL, OLD TOWN, HEBDEN BRIDGE, W YORKS, HX7 8SW","postcode":"HX7 8SW"}},{"type":"Feature","geometry":{"type":"Point","coordinates":[-1.9831448161337573,53.730864347440864]},"properties":{"name":"BENCHMARK TRAVEL LIMITED","address":"7 - 9, BRIDGE END MYTHOLMROYD, HEBDEN BRIDGE, WEST YORKSHIRE, HX7 5DR","postcode":"HX7 5DR"}},{"type":"Feature","geometry":{"type":"Point","coordinates":[-1.9823822356027614,53.731003005806635]},"properties":{"name":"BG COURIERS LIMITED","address":"C/O LORD & CO ACCOUNTANTS 17 BURNLEY ROAD, MYTHOLMROYD, HEBDEN BRIDGE, WEST YORKSHIRE, UNITED KINGDOM, HX7 5LH","postcode":"HX7 5LH"}},{"type":"Feature","geometry":{"type":"Point","coordinates":[-2.0129504511156573,53.746765184264014]},"properties":{"name":"BID 4 YOU LTD","address":"18 SPRING GROVE, HEBDEN BRIDGE, WEST YORKSHIRE, HX7 8LR","postcode":"HX7 8LR"}},{"type":"Feature","geometry":{"type":"Point","coordinates":[-2.0459220401495988,53.73264865386523]},"properties":{"name":"BIG PETE LIMITED","address":"THE MOTOR SPORTS CENTRE, SANDBED, HEBDEN BRIDGE, WEST YORKSHIRE, HX7 6PT","postcode":"HX7 6PT"}},{"type":"Feature","geometry":{"type":"Point","coordinates":[-2.01275302391564,53.74371127283394]},"properties":{"name":"BIG RED CIRCLE LTD","address":"BURLEES HOUSE, HANGINGROYD LANE, HEBDEN BRIDGE, WEST YORKSHIRE, HX7 7DD","postcode":"HX7 7DD"}},{"type":"Feature","geometry":{"type":"Point","coordinates":[-1.9896660597815095,53.71943785181941]},"properties":{"name":"BINGHAM & BROCK CHILDCARE LLP","address":"THE ARK DEAN HEY FARM, MYTHOLMROYD, HEBDEN BRIDGE, WEST YORKSHIRE, HX7 5RU","postcode":"HX7 5RU"}},{"type":"Feature","geometry":{"type":"Point","coordinates":[-2.0162068100989368,53.74162572113037]},"properties":{"name":"BIRCH PLACE LIMITED","address":"BARCLAYS BANK CHAMBERS, MARKET STREET, HEBDEN BRIDGE, WEST YORKSHIRE, ENGLAND, HX7 6AD","postcode":"HX7 6AD"}},{"type":"Feature","geometry":{"type":"Point","coordinates":[-2.0086634656800877,53.742424903860694]},"properties":{"name":"BIRCHCLIFFE CONSULTANCY LIMITED","address":"WOODSIDE, BIRCHCLIFFE ROAD, HEBDEN BRIDGE, WEST YORKSHIRE, HX7 8DQ","postcode":"HX7 8DQ"}},{"type":"Feature","geometry":{"type":"Point","coordinates":[-2.0096727257230027,53.74456748904386]},"properties":{"name":"BLACKBARK LLP","address":"6-8 NUTCLOUGH, KEIGHLEY ROAD, HEBDEN BRIDGE, WEST YORKSHIRE, HX7 8HA","postcode":"HX7 8HA"}},{"type":"Feature","geometry":{"type":"Point","coordinates":[-2.0160439644540284,53.74135513216752]},"properties":{"name":"BLACKSHAW ROYD EQUESTRIAN LIMITED","address":"BARCLAYS BANK CHAMBERS, MARKET STREET, HEBDEN BRIDGE, WEST YORKSHIRE, ENGLAND, HX7 6AD","postcode":"HX7 6AD"}},{"type":"Feature","geometry":{"type":"Point","coordinates":[-1.9734682298392319,53.729537654655964]},"properties":{"name":"BLAH BLAH BLAH UK LIMITED","address":"UNIT 17 MODERNA BUSINESS PARK, MYTHOLMROYD, WESY YORKSHIRE, HX7 5QQ","postcode":"HX7 5QQ"}},{"type":"Feature","geometry":{"type":"Point","coordinates":[-2.0159422237275635,53.741476698446405]},"properties":{"name":"BLEA LTD","address":"C/O CRESSWELLS, BARCLAYS BANK CHAMBERS, MARKET STREET, HEBDEN BRIDGE, WEST YORKSHIRE, ENGLAND, HX7 6AD","postcode":"HX7 6AD"}},{"type":"Feature","geometry":{"type":"Point","coordinates":[-2.0158785016156977,53.74160613387246]},"properties":{"name":"BLUE VESPA","address":"BARCLAYS BANK CHAMBERS, MARKET STREET, HEBDEN BRIDGE, HX7 6AD","postcode":"HX7 6AD"}},{"type":"Feature","geometry":{"type":"Point","coordinates":[-1.9907013716073862,53.75149201005413]},"properties":{"name":"BLUEFIN TRADING LIMITED","address":"KEELHAM FARM, WADSWORTH, HEBDEN BRIDGE, WEST YORKSHIRE, HX7 8TG","postcode":"HX7 8TG"}},{"type":"Feature","geometry":{"type":"Point","coordinates":[-2.0131748121255404,53.74414160915696]},"properties":{"name":"BLUEMOOSE BOOKS LTD","address":"25 SACKVILLE STREET, HEBDEN BRIDGE, WEST YORKSHIRE, HX7 7DJ","postcode":"HX7 7DJ"}},{"type":"Feature","geometry":{"type":"Point","coordinates":[-2.0171642305747297,53.740695068222756]},"properties":{"name":"BME LEARNING NETWORK (WEST YORKSHIRE)","address":"BEEHIVE MILLS, HEBBLE END, HEBDEN BRIDGE, WEST YORKSHIRE, HX7 6HJ","postcode":"HX7 6HJ"}},{"type":"Feature","geometry":{"type":"Point","coordinates":[-1.9775446828094583,53.7299685806328]},"properties":{"name":"BOB WILD GRASS MACHINERY LIMITED","address":"UNITS 7 & 8 WHITE LEE, MYTHOLMROYD, HEBDEN BRIDGE, WEST YORKS, HX7 5AD","postcode":"HX7 5AD"}},{"type":"Feature","geometry":{"type":"Point","coordinates":[-2.005237819797239,53.7634146675003]},"properties":{"name":"BOGACKI DESIGN LTD","address":"12 PECKET WELL MILL, HEBDEN BRIDGE, WEST YORKSHIRE, HX7 8QY","postcode":"HX7 8QY"}},{"type":"Feature","geometry":{"type":"Point","coordinates":[-2.0114200674790075,53.741731939493235]},"properties":{"name":"BORILLA LIMITED","address":"4 GARDEN STREET, HEBDEN BRIDGE, WEST YORKSHIRE, ENGLAND, HX7 8AQ","postcode":"HX7 8AQ"}},{"type":"Feature","geometry":{"type":"Point","coordinates":[-2.0159006705785494,53.74150977765794]},"properties":{"name":"BOUTIQUE WHITENING LIMITED","address":"BARCLAYS BANK CHAMBERS, MARKET STREET, HEBDEN BRIDGE, WEST YORKSHIRE, ENGLAND, HX7 6AD","postcode":"HX7 6AD"}},{"type":"Feature","geometry":{"type":"Point","coordinates":[-2.0195504058461973,53.74147955095706]},"properties":{"name":"BOWDEN2 LTD","address":"95 BRIDGE LANES, HEBDEN BRIDGE, WEST YORKSHIRE, HX7 6AT","postcode":"HX7 6AT"}},{"type":"Feature","geometry":{"type":"Point","coordinates":[-1.9897930079988535,53.719400323475924]},"properties":{"name":"BRANDED CONSUMABLE GOODS (DIRECT) LTD.","address":"UNIT 2A TOP LAND COUNTRY, BUSINESS PK, CRAGG ROAD, MYTHOLMROYD, HEBDEN BRIDGE, WESTYORKSHIRE, HX7 5RU","postcode":"HX7 5RU"}},{"type":"Feature","geometry":{"type":"Point","coordinates":[-2.0287832316518997,53.7434859420592]},"properties":{"name":"BRIC IO LTD","address":"9 GLEN VIEW, HEBDEN BRIDGE, WEST YORKSHIRE, UNITED KINGDOM, HX7 6DB","postcode":"HX7 6DB"}},{"type":"Feature","geometry":{"type":"Point","coordinates":[-2.0288415122512147,53.74356513859355]},"properties":{"name":"BRIC IO SERVICES LLP","address":"9 GLEN VIEW, HEBDEN BRIDGE, WEST YORKSHIRE, UNITED KINGDOM, HX7 6DB","postcode":"HX7 6DB"}},{"type":"Feature","geometry":{"type":"Point","coordinates":[-2.004776875655494,53.7447954859757]},"properties":{"name":"BRIDGE ECONOMICS LIMITED","address":"4 SANDY GATE, HEBDEN BRIDGE, WEST YORKSHIRE, HX7 8HZ","postcode":"HX7 8HZ"}},{"type":"Feature","geometry":{"type":"Point","coordinates":[-2.0172443071490203,53.740515444257774]},"properties":{"name":"BRIDGE RECTIFIER LTD","address":"UNIT 1B, HEBBLE END WORKS, HEBDEN BRIDGE, WEST YORKSHIRE, ENGLAND, HX7 6HJ","postcode":"HX7 6HJ"}},{"type":"Feature","geometry":{"type":"Point","coordinates":[-2.012338510707521,53.742506719197415]},"properties":{"name":"BRIGANTIA FUNDING LLP","address":"SUITE ONE HAWKSTONE HOUSE, VALLEY ROAD, HEBDEN BRIDGE, WEST YORKSHIRE, HX7 7BL","postcode":"HX7 7BL"}},{"type":"Feature","geometry":{"type":"Point","coordinates":[-2.012260310293759,53.741999260284516]},"properties":{"name":"BRINGTONHILL PROPERTIES LIMITED","address":"4 - 6 ST GEORGES SQUARE, HEBDEN BRIDGE, WEST YORKSHIRE, ENGLAND, HX7 8ET","postcode":"HX7 8ET"}},{"type":"Feature","geometry":{"type":"Point","coordinates":[-2.012515363124597,53.743800001387086]},"properties":{"name":"BROOKLYN STUDIO","address":"UNIT 3 38, HANGINGROYD LANE, HEBDEN BRIDGE, WEST YORKSHIRE, HX7 7DD","postcode":"HX7 7DD"}},{"type":"Feature","geometry":{"type":"Point","coordinates":[-2.0364429441418626,53.736618088609504]},"properties":{"name":"BROTHERS DAY FILMS LTD","address":"3 INGLE DENE, HEBDEN BRIDGE, HX7 6PQ","postcode":"HX7 6PQ"}},{"type":"Feature","geometry":{"type":"Point","coordinates":[-1.9994857762212883,53.740652850907935]},"properties":{"name":"BTS FIRST AID TRAINING & SERVICES LTD","address":"GREAT BURLEES FARM, BURLEES LANE, HEBDEN BRIDGE, WEST YORKSHIRE, ENGLAND, HX7 8PS","postcode":"HX7 8PS"}},{"type":"Feature","geometry":{"type":"Point","coordinates":[-2.082430962495705,53.74768313535863]},"properties":{"name":"BULLDOZER MACHINERY LIMITED","address":"1 MOORCOOK ROAD, MOORCOOK ROAD, HEBDEN BRIDGE, WEST YORKSHIRE, ENGLAND, HX7 7JA","postcode":"HX7 7JA"}},{"type":"Feature","geometry":{"type":"Point","coordinates":[-1.9853406627457038,53.732203139565804]},"properties":{"name":"BURNLEY ROAD ACADEMY","address":"BURNLEY ROAD ACADEMY BURNLEY ROAD, MYTHOLMROYD, HEBDEN BRIDGE, WEST YORKSHIRE, ENGLAND, HX7 5DE","postcode":"HX7 5DE"}},{"type":"Feature","geometry":{"type":"Point","coordinates":[-2.0133934273092944,53.74257651821744]},"properties":{"name":"BURNS COLLETT PROJECTS LIMITED","address":"THE TOWN HALL, ST GEORGE'S STREET, HEBDEN BRIDGE, WEST YORKSHIRE, HX7 7BY","postcode":"HX7 7BY"}},{"type":"Feature","geometry":{"type":"Point","coordinates":[-2.010424830759508,53.741459419261055]},"properties":{"name":"BUSINESS TECHNOLOGIST LIMITED","address":"APARTMENT 3 ZION BAPTIST CHAPEL, OSBORNE STREET, HEBDEN BRIDGE, WEST YORKSHIRE, ENGLAND, HX7 8DT","postcode":"HX7 8DT"}},{"type":"Feature","geometry":{"type":"Point","coordinates":[-2.01399482960483,53.74310447500245]},"properties":{"name":"BUTTRESS SYSTEMS LTD.","address":"51 ROYD TERRACE, HEBDEN BRIDGE, WEST YORKSHIRE, UNITED KINGDOM, HX7 7BT","postcode":"HX7 7BT"}},{"type":"Feature","geometry":{"type":"Point","coordinates":[-2.0121064765746604,53.74049082260672]},"properties":{"name":"BW FREEHOLD LTD","address":"9 BUTLERS WHARF, HEBDEN BRIDGE, WEST YORKSHIRE, HX7 8AF","postcode":"HX7 8AF"}},{"type":"Feature","geometry":{"type":"Point","coordinates":[-1.9772294693326553,53.73008245859216]},"properties":{"name":"BW INDUSTRIAL EQUIPMENT LIMITED","address":"UNIT 7-8, WHITE LEE UNIT 7-8, MYTHOLMROYD, HEBDEN BRIDGE, WEST YORKSHIRE, ENGLAND, HX7 5AD","postcode":"HX7 5AD"}},{"type":"Feature","geometry":{"type":"Point","coordinates":[-2.0159809388983767,53.74145416085877]},"properties":{"name":"C & C IT LIMITED","address":"BARCLAYS BANK CHAMBERS, MARKET STREET, HEBDEN BRIDGE, WEST YORKSHIRE, HX7 6AD","postcode":"HX7 6AD"}},{"type":"Feature","geometry":{"type":"Point","coordinates":[-2.01588030746158,53.74135702668299]},"properties":{"name":"C R BOOKKEEPING LIMITED","address":"BARCLAYS BANK CHAMBERS, MARKET STREET, HEBDEN BRIDGE, WEST YORKSHIRE, ENGLAND, HX7 6AD","postcode":"HX7 6AD"}},{"type":"Feature","geometry":{"type":"Point","coordinates":[-2.0308673876341974,53.73988202841643]},"properties":{"name":"C.N. TRADING LIMITED","address":"CALDERSIDE NURSERIES, OAKVILLE ROAD, HEBDEN BRIDGE, WEST YORKSHIRE, HX7 6NG","postcode":"HX7 6NG"}},{"type":"Feature","geometry":{"type":"Point","coordinates":[-2.0311401912050693,53.73984010011693]},"properties":{"name":"C.N. TRANSPORT LIMITED","address":"CALDERSIDE NURSERIES, CALDERSIDE, HEBDEN BRIDGE, WEST YORKSHIRE, HX7 6NG","postcode":"HX7 6NG"}},{"type":"Feature","geometry":{"type":"Point","coordinates":[-2.048349365023698,53.73392878363284]},"properties":{"name":"C.V.S.(HEBDEN BRIDGE)LIMITED","address":"ORCHARD COTTAGE, UNDERBANK, HEBDEN BRIDGE, WEST YORKSHIRE, HX7 6PR","postcode":"HX7 6PR"}},{"type":"Feature","geometry":{"type":"Point","coordinates":[-2.0098053079871847,53.74140889739052]},"properties":{"name":"CAFE SARDINIA LTD","address":"BEACHMOUNT MARLBOROUGH ROAD, HEBDEN BRIDGE, HALIFAX, UNITED KINGDOM, HX7 8BW","postcode":"HX7 8BW"}},{"type":"Feature","geometry":{"type":"Point","coordinates":[-1.9755741275320844,53.72992909776375]},"properties":{"name":"CALDENE BUSINESS PARK LIMITED","address":"BURNLEY ROAD, MYTHOLMROYD, HEBDEN BRIDGE, WEST YORKSHIRE, HX7 5QJ","postcode":"HX7 5QJ"}},{"type":"Feature","geometry":{"type":"Point","coordinates":[-1.9949210694876138,53.73390993837823]},"properties":{"name":"CALDER BROOK GARAGE LIMITED","address":"CALDER BROOK GARAGE, HOLME END, HEBDEN BRIDGE, WEST YORKSHIRE, HX7 8NX","postcode":"HX7 8NX"}},{"type":"Feature","geometry":{"type":"Point","coordinates":[-2.009104266470851,53.739907001266914]},"properties":{"name":"CALDER CIVIC TRUST LIMITED","address":"TAP INSTRUMENTS LTD MACHPELAH WORKS, BURNLEY ROAD, HEBDEN BRIDGE, WEST YORKSHIRE, HX7 8AU","postcode":"HX7 8AU"}},{"type":"Feature","geometry":{"type":"Point","coordinates":[-2.0169873873146575,53.741293363726875]},"properties":{"name":"CALDER COMPUTER SERVICES LIMITED","address":"BARCLAYS BANK CHAMBERS, MARKET STREET, HEBDEN BRIDGE, WEST YORKSHIRE, HX7 6AA","postcode":"HX7 6AA"}},{"type":"Feature","geometry":{"type":"Point","coordinates":[-1.9870042133454213,53.731093122731]},"properties":{"name":"CALDER FOOD HUB COMMUNITY INTEREST COMPANY","address":"6 THE DRIVE, HEBDEN BRIDGE, WEST YORKSHIRE, HX7 5BN","postcode":"HX7 5BN"}},{"type":"Feature","geometry":{"type":"Point","coordinates":[-1.9896572154414511,53.71969611348835]},"properties":{"name":"CALDER RECORDINGS LIMITED","address":"UNIT 9D TOPLAND COUNTRY BUSINESS, PARK MYTHOLMROYD, HALIFAX, WEST YORKSHIRE, HX7 5RU","postcode":"HX7 5RU"}},{"type":"Feature","geometry":{"type":"Point","coordinates":[-2.0086899043224555,53.74376434915476]},"properties":{"name":"CALDER VALLEY BUSINESS SERVICES LTD.","address":"BIRCHCLIFFE CENTRE, CHAPEL, AVENUE, HEBDEN BRIDGE, WEST YORKSHIRE, HX7 8DG","postcode":"HX7 8DG"}},{"type":"Feature","geometry":{"type":"Point","coordinates":[-2.0088305059109604,53.74195432734961]},"properties":{"name":"CALDER VALLEY COMMERCIAL SERVICES LIMITED","address":"10 BLENHEIM STREET, HEBDEN BRIDGE, WEST YORKSHIRE, HX7 8BU","postcode":"HX7 8BU"}},{"type":"Feature","geometry":{"type":"Point","coordinates":[-1.9881087110829714,53.731152202280974]},"properties":{"name":"CALDER VALLEY PLUMBING & HEATING LIMITED","address":"36 ERRINGDEN ROAD, HEBDEN BRIDGE, WEST YORKSHIRE, HX7 5AR","postcode":"HX7 5AR"}},{"type":"Feature","geometry":{"type":"Point","coordinates":[-1.986602821839909,53.72931449196918]},"properties":{"name":"CALDER VALLEY SEARCH AND RESCUE TEAM","address":"THE RESCUE POST, THRUSH HILL ROAD, HEBDEN BRIDGE, WEST YORKSHIRE, HX7 5AQ","postcode":"HX7 5AQ"}},{"type":"Feature","geometry":{"type":"Point","coordinates":[-2.0105614397831313,53.766782455892866]},"properties":{"name":"CALDER VALLEY STEINER EDUCATION LTD.","address":"11 DUCK HILL, PECKET WELL, HEBDEN BRIDGE, WEST YORKSHIRE, HX7 8RD","postcode":"HX7 8RD"}},{"type":"Feature","geometry":{"type":"Point","coordinates":[-1.981477877344317,53.727522101643636]},"properties":{"name":"CALDER WEAVING COMPANY LIMITED","address":"SCOUT ROAD, MYTHOLMROYD, HEBDEN BRIDGE, WEST YORKSHIRE, HX7 5HZ","postcode":"HX7 5HZ"}},{"type":"Feature","geometry":{"type":"Point","coordinates":[-2.0311611263581573,53.73984762308857]},"properties":{"name":"CALDERDALE SELF STORAGE LIMITED","address":"CALDERSIDE NURSERIES, OAKVILLE ROAD, HEBDEN BRIDGE, WEST YORKSHIRE, HX7 6NG","postcode":"HX7 6NG"}},{"type":"Feature","geometry":{"type":"Point","coordinates":[-2.008876746933867,53.743588384823276]},"properties":{"name":"CALDERDALE SUSTAINABILITY FORUM LIMITED","address":"21 CHAPEL AVENUE, HEBDEN BRIDGE, WEST YORKSHIRE, HX7 8DG","postcode":"HX7 8DG"}},{"type":"Feature","geometry":{"type":"Point","coordinates":[-2.0100006791875678,53.74427854751105]},"properties":{"name":"CALREC AUDIO LIMITED","address":"NUTCLOUGH MILL ., VALLEY ROAD, HEBDEN BRIDGE, WEST YORKSHIRE, HX7 8EZ","postcode":"HX7 8EZ"}},{"type":"Feature","geometry":{"type":"Point","coordinates":[-1.9923880583269848,53.73256913300836]},"properties":{"name":"CANCAN PRODUCTIONS LIMITED","address":"NEWFIELD LINDEN ROAD, MYTHOLMROYD, HEBDEN BRIDGE, HX7 5AN","postcode":"HX7 5AN"}},{"type":"Feature","geometry":{"type":"Point","coordinates":[-1.9980625573621693,53.74921837466164]},"properties":{"name":"CANSQUARED LIMITED","address":"24 OLD MILL RIDGE, WADSWORTH, HEBDEN BRIDGE, WEST YORKSHIRE, ENGLAND, HX7 8RT","postcode":"HX7 8RT"}},{"type":"Feature","geometry":{"type":"Point","coordinates":[-1.9826250063428705,53.73082932500684]},"properties":{"name":"CAPABLE PEOPLE LIMITED","address":"17 BURNLEY ROAD, MYTHOLMROYD, HEBDEN BRIDGE, WEST YORKSHIRE, HX7 5LH","postcode":"HX7 5LH"}},{"type":"Feature","geometry":{"type":"Point","coordinates":[-2.013050780226487,53.75017113105715]},"properties":{"name":"CAPITAL THINKING LTD","address":"BROOK LEIGH, LEE MILL ROAD, HEBDEN BRIDGE, WEST YORKSHIRE, ENGLAND, HX7 7AB","postcode":"HX7 7AB"}},{"type":"Feature","geometry":{"type":"Point","coordinates":[-1.9922917660534543,53.69575636926942]},"properties":{"name":"CARBON CREDIT OFFSETTING LTD","address":"NO.1 CRAGGS COUNTRY BUSINESS PARK, NEW ROAD CRAGG VALE, HEBDEN BRIDGE, WEST YORKSHIRE, UNITED KINGDOM, HX7 5TT","postcode":"HX7 5TT"}},{"type":"Feature","geometry":{"type":"Point","coordinates":[-1.9826592621338492,53.73074980928394]},"properties":{"name":"CARGO LITE LTD","address":"17 BURNLEY ROAD, MYTHOLMROYD, HEBDEN BRIDGE, WEST YORKSHIRE, UNITED KINGDOM, HX7 5LH","postcode":"HX7 5LH"}},{"type":"Feature","geometry":{"type":"Point","coordinates":[-2.0158158041161363,53.74126988497806]},"properties":{"name":"CAROLYN BOWERS LIMITED","address":"BARCLAYS BANK CHAMBERS, MARKET STREET, HEBDEN BRIDGE, WEST YORKSHIRE, HX7 6AD","postcode":"HX7 6AD"}},{"type":"Feature","geometry":{"type":"Point","coordinates":[-1.9824836915817483,53.730826785893775]},"properties":{"name":"CARPENTRY JOINERY SERVICES LTD","address":"17 BURNLEY ROAD, MYTHOLMROYD, HEBDEN BRIDGE, WEST YORKSHIRE, UNITED KINGDOM, HX7 5LH","postcode":"HX7 5LH"}},{"type":"Feature","geometry":{"type":"Point","coordinates":[-2.0127098734506044,53.74244828971447]},"properties":{"name":"CASSIOPEIA LIMITED","address":"SUITE 1 HAWKSTONE HOUSE, VALLEY ROAD, HEBDEN BRIDGE, HX7 7BL","postcode":"HX7 7BL"}},{"type":"Feature","geometry":{"type":"Point","coordinates":[-1.990724524940167,53.7290107753117]},"properties":{"name":"CATHY'S SOCIAL CARE LIMITED","address":"3 THROSTLE NEST, MYTHOLMROYD, HEBDEN BRIDGE, WEST YORKSHIRE, UNITED KINGDOM, HX7 5BG","postcode":"HX7 5BG"}},{"type":"Feature","geometry":{"type":"Point","coordinates":[-2.014555015225513,53.74475160247793]},"properties":{"name":"CAUSEWAY ASSOCIATES LTD","address":"4 MAYFIELD ROAD, HEBDEN BRIDGE, HALIFAX, WEST YORKSHIRE, UNITED KINGDOM, HX7 7DT","postcode":"HX7 7DT"}},{"type":"Feature","geometry":{"type":"Point","coordinates":[-2.0169698020593994,53.741391698583186]},"properties":{"name":"CBC OUTSOURCING LLP","address":"12 MARKET STREET, HEBDEN BRIDGE, WEST YORKSHIRE, HX7 6AA","postcode":"HX7 6AA"}},{"type":"Feature","geometry":{"type":"Point","coordinates":[-2.0166952905470774,53.74132250037439]},"properties":{"name":"CDZ LIMITED","address":"BARCLAYS BANK CHAMBERS, MARKET STREET, HEBDEN BRIDGE, WEST YORKSHIRE, HX7 6AA","postcode":"HX7 6AA"}},{"type":"Feature","geometry":{"type":"Point","coordinates":[-1.9866424318562328,53.725696964487646]},"properties":{"name":"CENTRE STAGE PERCUSSION LIMITED","address":"UNIT 11B THORNBER COUNTY BUSINESS PARK, CRAGG ROAD, MYTHOLMROYD, WEST YORKSHIRE, UNITED KINGDOM, HX7 5RW","postcode":"HX7 5RW"}},{"type":"Feature","geometry":{"type":"Point","coordinates":[-2.016982170551573,53.74156745773916]},"properties":{"name":"CHELTERMILL LIMITED","address":"BARCLAYS BANK CHAMBERS, HEBDEN BRIDGE, WEST YORKSHIRE, HX7 6AA","postcode":"HX7 6AA"}},{"type":"Feature","geometry":{"type":"Point","coordinates":[-2.0158306060999114,53.741351317779255]},"properties":{"name":"CHIEF DIGITAL LIMITED","address":"BARCLAYS BANK CHAMBERS, MARKET STREET, HEBDEN BRIDGE, WEST YORKSHIRE, ENGLAND, HX7 6AD","postcode":"HX7 6AD"}},{"type":"Feature","geometry":{"type":"Point","coordinates":[-2.0174464597007837,53.742366516957915]},"properties":{"name":"CLAIRE DONNELLY LIMITED","address":"18 ALBION TERRACE, HEPTONSTALL ROAD, HEBDEN BRIDGE, WEST YORKSHIRE, HX7 6BE","postcode":"HX7 6BE"}},{"type":"Feature","geometry":{"type":"Point","coordinates":[-2.0488870111855704,53.73758648641008]},"properties":{"name":"CLARUS LIVING LIMITED","address":"4-5 WINTERS COTTAGES, BLACKSHAW HEAD, HEBDEN BRIDGE, WEST YORKSHIRE, UNITED KINGDOM, HX7 7JU","postcode":"HX7 7JU"}},{"type":"Feature","geometry":{"type":"Point","coordinates":[-2.0493469016898618,53.73776274878988]},"properties":{"name":"CLARUS PROPERTY INVESTMENTS LIMITED","address":"4-5 WINTERS COTTAGES, BLACKSHAW HEAD, HEBDEN BRIDGE, WEST YORKSHIRE, HX7 7JU","postcode":"HX7 7JU"}},{"type":"Feature","geometry":{"type":"Point","coordinates":[-2.0127434235930592,53.743793133386546]},"properties":{"name":"CLEARMOVE LTD","address":"BURLEES HOUSE, HANGINGROYD LANE, HEBDEN BRIDGE, WEST YORKSHIRE, HX7 7DD","postcode":"HX7 7DD"}},{"type":"Feature","geometry":{"type":"Point","coordinates":[-1.986434403213232,53.72569088272951]},"properties":{"name":"CLEARWAY ESTATE AGENTS LIMITED","address":"UNIT 10D TOPLANDS BUSINESS PARK, CRAGG VALE, HEBDEN BRIDGE, WEST YORKSHIRE, ENGLAND, HX7 5RW","postcode":"HX7 5RW"}},{"type":"Feature","geometry":{"type":"Point","coordinates":[-1.979867558681669,53.73222091699797]},"properties":{"name":"CLOGS UK LIMITED","address":"UNIT 10 MOUNT PLEASANT MILLS, MIDGLEY ROAD, MYTHOLMROYD, WEST YORKS, HX7 5LR","postcode":"HX7 5LR"}},{"type":"Feature","geometry":{"type":"Point","coordinates":[-1.9869283009377277,53.704490776713556]},"properties":{"name":"CLOUD RELEVANCE LTD","address":"PLODWELL FARM, CRAGG VALE, HEBDEN BRIDGE, WEST YORKSHIRE, HX7 5TU","postcode":"HX7 5TU"}},{"type":"Feature","geometry":{"type":"Point","coordinates":[-1.98894899554347,53.72352748883353]},"properties":{"name":"CM DIESELS LTD","address":"99 CRAGG ROAD, HEBDEN BRIDGE, WEST YORKSHIRE, UNITED KINGDOM, HX7 5FB","postcode":"HX7 5FB"}},{"type":"Feature","geometry":{"type":"Point","coordinates":[-2.0311609122635415,53.74004067440308]},"properties":{"name":"CN PROPERTY LLP","address":"CALDERSIDE NURSERIES, OAKVILLE ROAD, HEBDEN BRIDGE, WEST YORKSHIRE, HX7 6NG","postcode":"HX7 6NG"}},{"type":"Feature","geometry":{"type":"Point","coordinates":[-2.0207685849316657,53.7501793046509]},"properties":{"name":"CO-OP CULTURE","address":"1 NORTHFIELD, HEBDEN BRIDGE, WEST YORKSHIRE, HX7 7NW","postcode":"HX7 7NW"}},{"type":"Feature","geometry":{"type":"Point","coordinates":[-2.011547030063287,53.76495110237143]},"properties":{"name":"CODELOGIC LIMITED","address":"LOWER CRIMSWORTH BARN, PECKET, WELL, HEBDEN BRIDGE, WEST YORKSHIRE, HX7 8RB","postcode":"HX7 8RB"}},{"type":"Feature","geometry":{"type":"Point","coordinates":[-2.012948674853459,53.74153724089321]},"properties":{"name":"COFFEE CALI LIMITED","address":"19 BRIDGEGATE, HEBDEN BRIDGE, WEST YORKSHIRE, HX7 8EX","postcode":"HX7 8EX"}},{"type":"Feature","geometry":{"type":"Point","coordinates":[-2.0626291573065583,53.74923103869681]},"properties":{"name":"COLDEN INTERIMS LIMITED","address":"SYCAMORE HOUSE 1 NEW SHAW LANE, BLACKSHAW HEAD, HEBDEN BRIDGE, WEST YORKSHIRE, HX7 7HZ","postcode":"HX7 7HZ"}},{"type":"Feature","geometry":{"type":"Point","coordinates":[-1.9771659702968944,53.727474901413736]},"properties":{"name":"COLOUR (YORKSHIRE) LTD","address":"16 ALBERT STREET, HEBDEN BRIDGE, WEST YORKSHIRE, HX7 5JR","postcode":"HX7 5JR"}},{"type":"Feature","geometry":{"type":"Point","coordinates":[-1.9734954351496354,53.72978267575209]},"properties":{"name":"COMMS PROVIDER LLP","address":"THE CONTINUUM, MODERNA BUSINESS PARK, MYTHOLMROYD, WEST YORKSHIRE, HX7 5QQ","postcode":"HX7 5QQ"}},{"type":"Feature","geometry":{"type":"Point","coordinates":[-2.024919143016191,53.740256786556635]},"properties":{"name":"COMPULINK SOLUTIONS LIMITED","address":"9 STUBBING BRINK, HEBDEN BRIDGE, WEST YORKSHIRE, HX7 6LR","postcode":"HX7 6LR"}},{"type":"Feature","geometry":{"type":"Point","coordinates":[-1.9827416066976367,53.730813968639794]},"properties":{"name":"CONCRETE MORTGAGE SOLUTIONS LTD","address":"17 BURNLEY ROAD, MYTHOLMROYD, HEBDEN BRIDGE, WEST YORKSHIRE, UNITED KINGDOM, HX7 5LH","postcode":"HX7 5LH"}},{"type":"Feature","geometry":{"type":"Point","coordinates":[-1.9897172985245926,53.719503726953036]},"properties":{"name":"CONE RECORDS LIMITED","address":"UNIT 9D TOP LAND COUNTRY, BUSINESS PARK CRAGG ROAD, MYTHOLMROYD NR HEBDEN BRIDGE, WEST YORKSHIRE, HX7 5RU","postcode":"HX7 5RU"}},{"type":"Feature","geometry":{"type":"Point","coordinates":[-2.0247493473044167,53.74168970616537]},"properties":{"name":"CORYLUS CONSULTING LTD.","address":"20 LONGSTAFF COURT, HEBDEN BRIDGE, UNITED KINGDOM, HX7 6AB","postcode":"HX7 6AB"}},{"type":"Feature","geometry":{"type":"Point","coordinates":[-1.9866840728309638,53.72585596920332]},"properties":{"name":"COUNTRYSIDE LEARNING","address":"UNIT 4F TOPLAND COUNTRY BUSINESS PARK, CRAGG VALE, HEBDEN BRIDGE, WEST YORKSHIRE, HX7 5RW","postcode":"HX7 5RW"}},{"type":"Feature","geometry":{"type":"Point","coordinates":[-2.020859413380735,53.749110392518425]},"properties":{"name":"CPPS POLICY EXCHANGE LTD","address":"64 TOWNGATE, HEPTONSTALL, HEBDEN BRIDGE, WEST YORKSHIRE, HX7 7NB","postcode":"HX7 7NB"}},{"type":"Feature","geometry":{"type":"Point","coordinates":[-1.9867184843688834,53.725736907004766]},"properties":{"name":"CPS COMPLIANCE SOLUTIONS LIMITED","address":"UNIT 10D TOPLAND COUNTRY BUSINESS PARK, CRAGG VALE, HEBDEN BRIDGE, WEST YORKSHIRE, HX7 5RW","postcode":"HX7 5RW"}},{"type":"Feature","geometry":{"type":"Point","coordinates":[-1.9975067612739132,53.75623790780318]},"properties":{"name":"CRAFTY PONIES LIMITED","address":"ALLSWELL FARM, WADSWORTH, HEBDEN BRIDGE, WEST YORKSHIRE, UNITED KINGDOM, HX7 8TF","postcode":"HX7 8TF"}},{"type":"Feature","geometry":{"type":"Point","coordinates":[-1.9957160219009522,53.70783755298966]},"properties":{"name":"CRAGG BUILDERS LIMITED","address":"CASTLE HALL UNIT, CRAGG VALE, HEBDEN BRIDGE, WEST YORKSHIRE, HX7 5SS","postcode":"HX7 5SS"}},{"type":"Feature","geometry":{"type":"Point","coordinates":[-2.050097951118773,53.76690703979911]},"properties":{"name":"CRAGG ENGINEERING SERVICES LIMITED","address":"ACRE LANE COTTAGE, WIDDOP ROAD, HEBDEN BRIDGE, WEST YORKSHIRE, HX7 7AZ","postcode":"HX7 7AZ"}},{"type":"Feature","geometry":{"type":"Point","coordinates":[-1.9954394068683636,53.70785501830325]},"properties":{"name":"CRAGG PROPERTIES LTD","address":"CASTLE HALL UNIT, CRAGG VALE, HEBDEN BRIDGE, WEST YORKSHIRE, HX7 5SS","postcode":"HX7 5SS"}},{"type":"Feature","geometry":{"type":"Point","coordinates":[-1.9978650464780712,53.695974017054155]},"properties":{"name":"CRAGG VALE COMMUNITY LIMITED","address":"2 GREEN BANK, HEBDEN BRIDGE, WEST YORKSHIRE, HX7 5TP","postcode":"HX7 5TP"}},{"type":"Feature","geometry":{"type":"Point","coordinates":[-1.9869060641523761,53.70458635253074]},"properties":{"name":"CRAGG VALE CONSULTANCY LIMITED","address":"COB CASTLE COPPY NOOK LANE CRAGG VALE, HEBDEN BRIDGE, WEST YORKSHIRE, HX7 5TU","postcode":"HX7 5TU"}},{"type":"Feature","geometry":{"type":"Point","coordinates":[-1.9823647082863893,53.707827966121435]},"properties":{"name":"CRAGG VALE CONSULTING (CVC) LIMITED","address":"SWAT FARM COPPY NOOK LANE, CRAGG VALE, HEBDEN BRIDGE, HX7 5TX","postcode":"HX7 5TX"}},{"type":"Feature","geometry":{"type":"Point","coordinates":[-1.9924744108191703,53.69583821293657]},"properties":{"name":"CRAGGS ENERGY LIMITED","address":"THE CRAGGS COUNTRY BUSINESS PARK NEW ROAD, CRAGG VALE, HEBDEN BRIDGE, WEST YORKSHIRE, HX7 5TT","postcode":"HX7 5TT"}},{"type":"Feature","geometry":{"type":"Point","coordinates":[-1.9923252019903348,53.695901266758646]},"properties":{"name":"CRAGGS ENVIRONMENTAL LIMITED","address":"THE CRAGGS COUNTRY BUS PARK NEW ROAD, CRAGG VALE, HEBDEN BRIDGE, WEST YORKSHIRE, HX7 5TT","postcode":"HX7 5TT"}},{"type":"Feature","geometry":{"type":"Point","coordinates":[-1.9923597373127453,53.69570402987472]},"properties":{"name":"CRAGGS FUEL CARDS LTD","address":"THE CRAGGS COUNTRY BUSINESS PARK NEW ROAD, CRAGG VALE, HEBDEN BRIDGE, WEST YORKSHIRE, ENGLAND, HX7 5TT","postcode":"HX7 5TT"}},{"type":"Feature","geometry":{"type":"Point","coordinates":[-2.0196637097877472,53.74157812080016]},"properties":{"name":"CREATIVE CANVAS LIMITED","address":"95 BRIDGE LANES, HEBDEN BRIDGE, WEST YORKSHIRE, HX7 6AT","postcode":"HX7 6AT"}},{"type":"Feature","geometry":{"type":"Point","coordinates":[-2.0159187335813153,53.74141808787431]},"properties":{"name":"CRESSWELL CRABTREE & SONS LIMITED","address":"BARCLAYS BANK CHAMBERS, MARKET STREET, HEBDEN BRIDGE, WEST YORKSHIRE, ENGLAND, HX7 6AD","postcode":"HX7 6AD"}},{"type":"Feature","geometry":{"type":"Point","coordinates":[-2.0159403442666783,53.741687032922805]},"properties":{"name":"CRESSWELLS ACCOUNTANTS (UK) LIMITED","address":"BARCLAYS BANK CHAMBERS, MARKET STREET, HEBDEN BRIDGE, WEST YORKSHIRE, UNITED KINGDOM, HX7 6AD","postcode":"HX7 6AD"}},{"type":"Feature","geometry":{"type":"Point","coordinates":[-2.016115762747874,53.74142639541478]},"properties":{"name":"CRESSWELLS ACCOUNTANTS LLP","address":"BARCLAYS BANK CHAMBERS, MARKET STREET, HEBDEN BRIDGE, WEST YORKSHIRE, HX7 6AD","postcode":"HX7 6AD"}},{"type":"Feature","geometry":{"type":"Point","coordinates":[-2.016211689908073,53.741641679136485]},"properties":{"name":"CRESSWELLS LIMITED","address":"BARCLAYS BANK CHAMBERS, MARKET STREET, HEBDEN BRIDGE, WEST YORKSHIRE, HX7 6AD","postcode":"HX7 6AD"}},{"type":"Feature","geometry":{"type":"Point","coordinates":[-1.982468089134212,53.730702163074234]},"properties":{"name":"CRESTFIELD IT SOLUTIONS LTD","address":"17 BURNLEY ROAD, MYTHOLMROYD, HEBDEN BRIDGE, WEST YORKSHIRE, UNITED KINGDOM, HX7 5LH","postcode":"HX7 5LH"}},{"type":"Feature","geometry":{"type":"Point","coordinates":[-1.9737738055776544,53.73397016657924]},"properties":{"name":"CRICKET ASYLUM LIMITED","address":"8 HULLETT CLOSE, HEBDEN BRIDGE, WEST YORKSHIRE, ENGLAND, HX7 5QP","postcode":"HX7 5QP"}},{"type":"Feature","geometry":{"type":"Point","coordinates":[-2.017200904149792,53.74150673702261]},"properties":{"name":"CS HOTEL SOLUTIONS LTD","address":"CRESSWELLS, BARCLAYS BANK CHAMBERS, HEBDEN BRIDGE, WEST YORKSHIRE, ENGLAND, HX7 6AA","postcode":"HX7 6AA"}},{"type":"Feature","geometry":{"type":"Point","coordinates":[-1.9816657634197992,53.727809967037615]},"properties":{"name":"CSR DISTRIBUTION LIMITED","address":"CSR DISTRIBUTION ORCHARD BUSINESS PARK, SCOUT ROAD, HEBDEN BRIDGE, WEST YORKSHIRE, UNITED KINGDOM, HX7 5HZ","postcode":"HX7 5HZ"}},{"type":"Feature","geometry":{"type":"Point","coordinates":[-2.0059526339573215,53.7616329336723]},"properties":{"name":"CURIOUS CARGO LIMITED","address":"33 KEIGHLEY ROAD, PECKET WELL, HEBDEN BRIDGE, WEST YORKSHIRE, HX7 8QN","postcode":"HX7 8QN"}},{"type":"Feature","geometry":{"type":"Point","coordinates":[-1.9776389373892924,53.73001045034599]},"properties":{"name":"CUSTOMISED SEWING SERVICES LTD","address":"UNIT 1D WHITE LEE BUSINESS PARK, MYTHOLMROYD, HEBDEN BRIDGE, WEST YORKSHIRE, HX7 5AD","postcode":"HX7 5AD"}},{"type":"Feature","geometry":{"type":"Point","coordinates":[-2.0218375919510683,53.74788104738545]},"properties":{"name":"D P SQUARED LIMITED","address":"22 HEPTON DRIVE, HEPTONSTALL, HEBDEN BRIDGE, WEST YORKSHIRE, HX7 7LU","postcode":"HX7 7LU"}},{"type":"Feature","geometry":{"type":"Point","coordinates":[-1.975915007255726,53.73416505693396]},"properties":{"name":"D.E.A. (YORKSHIRE) LTD","address":"5 LEE CLOUGH DRIVE, MYTHOLMROYD, HEBDEN BRIDGE, W YORKS, HX7 5PP","postcode":"HX7 5PP"}},{"type":"Feature","geometry":{"type":"Point","coordinates":[-2.0125584159320327,53.74169813930116]},"properties":{"name":"DAISY AND SAM LTD.","address":"7 CROWN STREET, HEBDEN BRIDGE, WEST YORKSHIRE, HX7 8EH","postcode":"HX7 8EH"}},{"type":"Feature","geometry":{"type":"Point","coordinates":[-2.009774101823695,53.74157710280917]},"properties":{"name":"DARIO'S PIZZERIA LTD","address":"BEECHMOUNT, MARLBOROUGH ROAD, HEBDEN BRIDGE, WEST YORKSHIRE, HX7 8BW","postcode":"HX7 8BW"}},{"type":"Feature","geometry":{"type":"Point","coordinates":[-2.020371468831953,53.746978632960214]},"properties":{"name":"DAWSON ACCESS LTD","address":"36 LONGFIELD, LONGFIELD, HEBDEN BRIDGE, WEST YORKSHIRE, ENGLAND, HX7 7LR","postcode":"HX7 7LR"}},{"type":"Feature","geometry":{"type":"Point","coordinates":[-2.0128335914553888,53.743691047431476]},"properties":{"name":"DECKMEDIA LIMITED","address":"BURLEES HOUSE, HANGINGROYD LANE, HEBDEN BRIDGE, WEST YORKSHIRE, HX7 7DD","postcode":"HX7 7DD"}},{"type":"Feature","geometry":{"type":"Point","coordinates":[-1.9827976455475782,53.730848000588665]},"properties":{"name":"DEE'S HOMECARE LTD","address":"17 BURNLEY ROAD, MYTHOLMROYD, HEBDEN BRIDGE, WEST YORKSHIRE, UNITED KINGDOM, HX7 5LH","postcode":"HX7 5LH"}},{"type":"Feature","geometry":{"type":"Point","coordinates":[-1.9884860543789968,53.72745408068802]},"properties":{"name":"DELTA ORIGINS LIMITED","address":"34 CRAGG ROAD, HEBDEN BRIDGE, WEST YORKSHIRE, UNITED KINGDOM, HX7 5EG","postcode":"HX7 5EG"}},{"type":"Feature","geometry":{"type":"Point","coordinates":[-1.9972196232915527,53.749759071774854]},"properties":{"name":"DESIGNBYSIM LIMITED","address":"5 CHISERLEY FIELDSIDE, HEBDEN BRIDGE, WEST YORKSHIRE, HX7 8SA","postcode":"HX7 8SA"}},{"type":"Feature","geometry":{"type":"Point","coordinates":[-2.0026449619212605,53.742726278612004]},"properties":{"name":"DIAMOND DOGS DOG WALKING LIMITED","address":"6 MANOR DRIVE, HEBDON BRIDGE, UNITED KINGDOM, HX7 8DW","postcode":"HX7 8DW"}},{"type":"Feature","geometry":{"type":"Point","coordinates":[-2.0160182973972627,53.74142217550973]},"properties":{"name":"DIAMOND PROPERTIES (YORKSHIRE) LIMITED","address":"BARCLAYS BANK CHAMBERS, MARKET STREET, HEBDEN BRIDGE, WEST YORKSHIRE, HX7 6AD","postcode":"HX7 6AD"}},{"type":"Feature","geometry":{"type":"Point","coordinates":[-1.9904264060967076,53.73162761062486]},"properties":{"name":"DISCOTOX LIMITED","address":"6 PADDY BRIDGE ROAD, HEBDEN BRIDGE, WEST YORKSHIRE, UNITED KINGDOM, HX7 5BP","postcode":"HX7 5BP"}},{"type":"Feature","geometry":{"type":"Point","coordinates":[-1.9921147275233355,53.69591504438543]},"properties":{"name":"DISCOVERING LIFE LIMITED","address":"SUITE 10 CRAGGS OFFICE SUITES THE CRAGGS COUNTRY BUSINESS PARK, NEW ROAD, CRAGG VALE, HEBDEN BRIDGE, WEST YORKSHIRE, HX7 5TT","postcode":"HX7 5TT"}},{"type":"Feature","geometry":{"type":"Point","coordinates":[-1.997278214267491,53.756169571964875]},"properties":{"name":"DMC BUILDERS LIMITED","address":"ALLSWELL FARM, WADSWORTH, HEBDEN BRIDGE, WEST YORKSHIRE, HX7 8TF","postcode":"HX7 8TF"}},{"type":"Feature","geometry":{"type":"Point","coordinates":[-2.0127216297856205,53.74395394287677]},"properties":{"name":"DNG LOCUM SERVICES LTD","address":"C/O FITTON & CO, BURLEES HOUSE, HANGINGROYD LANE, HEBDEN BRIDGE, ENGLAND, HX7 7DD","postcode":"HX7 7DD"}},{"type":"Feature","geometry":{"type":"Point","coordinates":[-1.981596565183886,53.7277039618005]},"properties":{"name":"DOG HONEST LTD","address":"UNIT 7, ORCHARD BUSINESS PARK, HALIFAX, WEST YORKSHIRE, UNITED KINGDOM, HX7 5HZ","postcode":"HX7 5HZ"}},{"type":"Feature","geometry":{"type":"Point","coordinates":[-2.0588927680651268,53.75027266486905]},"properties":{"name":"DOOLALLY INNS LTD","address":"NEW DELIGHT INN, BLACKSHAW HEAD, HEBDEN BRIDGE, WEST YORKSHIRE, ENGLAND, HX7 7HT","postcode":"HX7 7HT"}},{"type":"Feature","geometry":{"type":"Point","coordinates":[-2.0158310517706113,53.7414138574455]},"properties":{"name":"DORA & HEGGARTY LIMITED","address":"BARCLAYS BANK CHAMBERS, MARKET STREET, HEBDEN BRIDGE, WEST YORKSHIRE, ENGLAND, HX7 6AD","postcode":"HX7 6AD"}},{"type":"Feature","geometry":{"type":"Point","coordinates":[-2.0128868637528083,53.743970534001775]},"properties":{"name":"DOWN2EARTH CENTRE LTD","address":"SUITE 4, BURLEES HOUSE, HANGINGROYD LANE, HEBDEN BRIDGE, ENGLAND, HX7 7DD","postcode":"HX7 7DD"}},{"type":"Feature","geometry":{"type":"Point","coordinates":[-2.0121001675917065,53.752635289180574]},"properties":{"name":"DR J REDFERN LIMITED","address":"VALHALLA, LEE MILL ROAD, HEBDEN BRIDGE, WEST YORKSHIRE, ENGLAND, HX7 7AE","postcode":"HX7 7AE"}},{"type":"Feature","geometry":{"type":"Point","coordinates":[-2.0414256546073184,53.73699124435946]},"properties":{"name":"DR LINDA PATTERSON LIMITED","address":"KNOTT HALL, CHARLESTOWN, HEBDEN BRIDGE, WEST YORKSHIRE, ENGLAND, HX7 6PE","postcode":"HX7 6PE"}},{"type":"Feature","geometry":{"type":"Point","coordinates":[-1.97354870770044,53.72960593029644]},"properties":{"name":"DREW FORSYTH & CO LTD.","address":"UNIT 1A MODERNA BUSINESS PARK MODERNA WAY, MYTHOLMROYD, HEBDEN BRIDGE, W. YORKS, HX7 5QQ","postcode":"HX7 5QQ"}},{"type":"Feature","geometry":{"type":"Point","coordinates":[-2.014177792004457,53.74090784233612]},"properties":{"name":"DREW FORSYTH DESIGNS LTD","address":"27 WEST END, HEBDEN BRIDGE, WEST YORKSHIRE, HX7 8UQ","postcode":"HX7 8UQ"}},{"type":"Feature","geometry":{"type":"Point","coordinates":[-2.0158641076114723,53.74154793451027]},"properties":{"name":"DRING TECHNOLOGY SOLUTIONS LIMITED","address":"BARCLAYS BANK CHAMBERS, MARKET STREET, HEBDEN BRIDGE, WEST YORKSHIRE, ENGLAND, HX7 6AD","postcode":"HX7 6AD"}},{"type":"Feature","geometry":{"type":"Point","coordinates":[-1.9826931632812743,53.730845062602036]},"properties":{"name":"DRYSURE UK LTD","address":"17 BURNLEY ROAD, MYTHOLMROYD, HEBDEN BRIDGE, WEST YORKSHIRE, UNITED KINGDOM, HX7 5LH","postcode":"HX7 5LH"}},{"type":"Feature","geometry":{"type":"Point","coordinates":[-2.015898178468484,53.741571798071064]},"properties":{"name":"DUALMIST FIRE PRODUCTS LIMITED","address":"BARCLAYS BANK CHAMBERS, MARKET STREET, HEBDEN BRIDGE, WEST YORKSHIRE, HX7 6AD","postcode":"HX7 6AD"}},{"type":"Feature","geometry":{"type":"Point","coordinates":[-2.015862517462963,53.74151227984503]},"properties":{"name":"DUALMIST LIMITED","address":"BARCLAYS BANK CHAMBERS, MARKET STREET, HEBDEN BRIDGE, WEST YORKSHIRE, ENGLAND, HX7 6AD","postcode":"HX7 6AD"}},{"type":"Feature","geometry":{"type":"Point","coordinates":[-2.0155531900739865,53.74161574111442]},"properties":{"name":"DUVKET INVESTMENTS LIMITED","address":"BARCLAYS BANK CHAMBERS, MARKET STREET, HEBDEN BRIDGE, WEST YORKSHIRE, ENGLAND, HX7 6AD","postcode":"HX7 6AD"}},{"type":"Feature","geometry":{"type":"Point","coordinates":[-1.982624773043704,53.73103096356438]},"properties":{"name":"E.S. MAINTENANCE SERVICES LTD","address":"17 BURNLEY ROAD, MYTHOLMROYD, HEBDEN BRIDGE, WEST YORKSHIRE, HX7 5LH","postcode":"HX7 5LH"}},{"type":"Feature","geometry":{"type":"Point","coordinates":[-2.0127191762294405,53.74396875564848]},"properties":{"name":"EASTWOODS RENEWABLES LIMITED","address":"C/O FITTON & CO BURLEES HOUSE, HANGINGROYD LANE, HEBDEN BRIDGE, HX7 7DD","postcode":"HX7 7DD"}},{"type":"Feature","geometry":{"type":"Point","coordinates":[-1.9858759700905606,53.73110644538785]},"properties":{"name":"ECLIPSE CLIMBING LIMITED","address":"44 CALDENE AVENUE, HEBDEN BRIDGE, HX7 5AF","postcode":"HX7 5AF"}},{"type":"Feature","geometry":{"type":"Point","coordinates":[-1.9800193626584195,53.73229636501881]},"properties":{"name":"ECO FRIENDLY FURNISHINGS LIMITED","address":"MOUNT PLEASANT MILLS MIDGLEY ROAD, MYTHOLMROYD, HEBDEN BRIDGE, WEST YORKSHIRE, HX7 5LR","postcode":"HX7 5LR"}},{"type":"Feature","geometry":{"type":"Point","coordinates":[-2.0459540705669044,53.73259346270028]},"properties":{"name":"ECO HEAT AND POWER LIMITED","address":"2 SANDBED, HEBDEN BRIDGE, WEST YORKSHIRE, HX7 6PT","postcode":"HX7 6PT"}},{"type":"Feature","geometry":{"type":"Point","coordinates":[-2.017259071662286,53.74050456301284]},"properties":{"name":"ECO SCHOOL PRODUCTS LTD","address":"BEEHIVE MILLS, HEBBLE END, HEBDEN BRIDGE, WEST YORKSHIRE, ENGLAND, HX7 6HJ","postcode":"HX7 6HJ"}},{"type":"Feature","geometry":{"type":"Point","coordinates":[-2.011908773831645,53.74820625683185]},"properties":{"name":"EFFECTIVE WORK FORCE SOLUTIONS LIMITED","address":"3 NURSERY NOOK, HEBDEN BRIDGE, HALIFAX, WEST YORKSHIRE, HX7 8NA","postcode":"HX7 8NA"}},{"type":"Feature","geometry":{"type":"Point","coordinates":[-2.0162024190732035,53.741228448943396]},"properties":{"name":"ELEMENT JEWELLERY LTD.","address":"25 MARKET STREET, HEBDEN BRIDGE, WEST YORKSHIRE, HX7 6EU","postcode":"HX7 6EU"}},{"type":"Feature","geometry":{"type":"Point","coordinates":[-1.999431736186912,53.70508789837314]},"properties":{"name":"ELIXIR SYSTEMS LIMITED","address":"THE OLD STABLES, BLACKSTONE EDGE ROAD CRAGG VALE, NR HEBDEN BRIDGE, WEST YORKSHIRE, HX7 5TG","postcode":"HX7 5TG"}},{"type":"Feature","geometry":{"type":"Point","coordinates":[-1.9963828709550206,53.69840186167566]},"properties":{"name":"ELIZABETH MCWHIRTER LIMITED","address":"3 LITTLEWOOD, CRAGG VALE, HEBDEN BRIDGE, WEST YORKSHIRE, HX7 5TL","postcode":"HX7 5TL"}},{"type":"Feature","geometry":{"type":"Point","coordinates":[-2.0159756421504347,53.74151520596785]},"properties":{"name":"ELLENBROOK PARTNERS LIMITED","address":"BARCLAYS BANK CHAMBERS, MARKET STREET, HEBDEN BRIDGE, UNITED KINGDOM, HX7 6AD","postcode":"HX7 6AD"}},{"type":"Feature","geometry":{"type":"Point","coordinates":[-2.0294347608434515,53.74162794276452]},"properties":{"name":"ELLIVIEW LIMITED","address":"WOODENTOPS, SAVILE ROAD, HEBDEN BRIDGE, WEST YORKSHIRE, ENGLAND, HX7 6ND","postcode":"HX7 6ND"}},{"type":"Feature","geometry":{"type":"Point","coordinates":[-2.0091782023107525,53.739922597996]},"properties":{"name":"EQUINE SOLUTIONS UK LIMITED","address":"2 MACHPELAH, HEBDEN BRIDGE, WEST YORKSHIRE, HX7 8AU","postcode":"HX7 8AU"}},{"type":"Feature","geometry":{"type":"Point","coordinates":[-2.004846299738448,53.744964684075505]},"properties":{"name":"ERIN SOLUTIONS LIMITED","address":"6 SANDY GATE, HEBDEN BRIDGE, WEST YORKSHIRE, UNITED KINGDOM, HX7 8HZ","postcode":"HX7 8HZ"}},{"type":"Feature","geometry":{"type":"Point","coordinates":[-1.9867787358191316,53.72572952030107]},"properties":{"name":"ETERNAL BEAUTY STUDIO LIMITED","address":"UNIT 10D TOPLAND COUNTRY BUSINESS PARK, CRAGG VALE, HEBDEN BRIDGE, WEST YORKSHIRE, HX7 5RW","postcode":"HX7 5RW"}},{"type":"Feature","geometry":{"type":"Point","coordinates":[-2.0118502058143743,53.74104406153959]},"properties":{"name":"EVANMORE LTD","address":"THE OLD POLICE STATION, HOPE STREET, HEBDEN BRIDGE, WEST YORKSHIRE, ENGLAND, HX7 8AG","postcode":"HX7 8AG"}},{"type":"Feature","geometry":{"type":"Point","coordinates":[-2.0152595755288996,53.746043048720416]},"properties":{"name":"EVERSLEY ROAD MANAGEMENT LIMITED","address":"1 SLATER BANK, HEBDEN BRIDGE, WEST YORKS, HX7 7DY","postcode":"HX7 7DY"}},{"type":"Feature","geometry":{"type":"Point","coordinates":[-1.9897824390644177,53.71942181815241]},"properties":{"name":"EXPERTREAT LIMITED","address":"UNIT 3A TOP LAND COUNTRY, BUSINESS PARK CRAGG ROAD, MYTHOLMROYD HEBDEN BRIDGE, WEST YORKSHIRE, HX7 5RU","postcode":"HX7 5RU"}},{"type":"Feature","geometry":{"type":"Point","coordinates":[-1.9821879141298009,53.73084435699646]},"properties":{"name":"F M AND K CONSTRUCTION LTD","address":"C/O LORD & SWAIN ACCOUNTANTS 17 BURNLEY ROAD, MYTHOLMROYD, HEBDEN BRIDGE, UNITED KINGDOM, HX7 5LH","postcode":"HX7 5LH"}},{"type":"Feature","geometry":{"type":"Point","coordinates":[-1.9777726688567714,53.72940681296611]},"properties":{"name":"FACTORYLUX LTD","address":"OLD TROUSER FACTORY GREENHILL INDUSTRIAL MYTHOLMROYD, MYTHOLMROYD, HEBDEN BRIDGE, UNITED KINGDOM, HX7 5QF","postcode":"HX7 5QF"}},{"type":"Feature","geometry":{"type":"Point","coordinates":[-2.005854348883493,53.76336393941749]},"properties":{"name":"FAIRBANKS FOOD&DRINK CONSULTANCY LTD.","address":"44 KEIGHLEY ROAD, PECKETT WELL, HEBDEN BRIDGE, HALIFAX, HX7 8QX","postcode":"HX7 8QX"}},{"type":"Feature","geometry":{"type":"Point","coordinates":[-2.0127312975600526,53.74382240744578]},"properties":{"name":"FAST DOORS DIRECT LTD","address":"C/O FITTON & CO BURLEES HOUSE, HANGINGROYD LANE, HEBDEN BRIDGE, ENGLAND, HX7 7DD","postcode":"HX7 7DD"}},{"type":"Feature","geometry":{"type":"Point","coordinates":[-2.012643656351002,53.74262939896009]},"properties":{"name":"FAST LANE (YORKSHIRE) LIMITED","address":"SUITE ONE HAWKSTONE HOUSE, VALLEY ROAD, HEBDEN BRIDGE, WEST YORKSHIRE, HX7 7BL","postcode":"HX7 7BL"}},{"type":"Feature","geometry":{"type":"Point","coordinates":[-1.9770999717321645,53.73152646223361]},"properties":{"name":"FEET FIRST CHIROPODY & PODIATRY LIMITED","address":"4 LAUREATE PLACE, MYTHOLMROYD, HEBDEN BRIDGE, WEST YORKSHIRE, ENGLAND, HX7 5PS","postcode":"HX7 5PS"}},{"type":"Feature","geometry":{"type":"Point","coordinates":[-2.0170544470800746,53.74137826990241]},"properties":{"name":"FIBRE SUPERIORE LIMITED","address":"BARCLAYS BANK CHAMBERS, HEBDEN BRIDGE, HALIFAX, WEST YORKSHIRE, HX7 6AA","postcode":"HX7 6AA"}},{"type":"Feature","geometry":{"type":"Point","coordinates":[-2.0114433937866583,53.764740884135286]},"properties":{"name":"FILIO LIMITED","address":"LOWER CRIMSWORTH HOUSE, PECKET WELL, HEBDEN BRIDGE, HX7 8RB","postcode":"HX7 8RB"}},{"type":"Feature","geometry":{"type":"Point","coordinates":[-1.9971298749247548,53.74923724496915]},"properties":{"name":"FIONA ARMER LIMITED","address":"3 LOWER CHISERLEY, BILLY LANE, HEBDEN BRIDGE, HX7 8RZ","postcode":"HX7 8RZ"}},{"type":"Feature","geometry":{"type":"Point","coordinates":[-2.0159144479475994,53.74149235814715]},"properties":{"name":"FIR WOOD IT LLP","address":"BARCLAYS BANK CHAMBERS, MARKET STREET, HEBDEN BRIDGE, WEST YORKSHIRE, HX7 6AD","postcode":"HX7 6AD"}},{"type":"Feature","geometry":{"type":"Point","coordinates":[-2.0108708992782884,53.746067197155256]},"properties":{"name":"FITTON & CO ACCOUNTANTS LIMITED","address":"38 HIGHFIELD CRESCENT, HEBDEN BRIDGE, WEST YORKSHIRE, HX7 8LA","postcode":"HX7 8LA"}},{"type":"Feature","geometry":{"type":"Point","coordinates":[-1.9816166721917552,53.72772848444663]},"properties":{"name":"FLOWER OF LIFE LTD","address":"UNIT 2A ORCHARD BUSINESS PARK, SCOUT ROAD, HEBDEN BRIDGE, WEST YORKSHIRE, HX7 5HZ","postcode":"HX7 5HZ"}},{"type":"Feature","geometry":{"type":"Point","coordinates":[-2.005673764113277,53.76340017785744]},"properties":{"name":"FOOD & DRINK EXPORTERS ASSOCIATION LIMITED","address":"CHANGE COTTAGE 43/44 KEIGHLEY ROAD, PECKET WELL, HEBDEN BRIDGE, WEST YORKSHIRE, HX7 8QX","postcode":"HX7 8QX"}},{"type":"Feature","geometry":{"type":"Point","coordinates":[-2.0055370785206006,53.763371881542554]},"properties":{"name":"FOOD & DRINK EXPORTESE LIMITED","address":"44 KEIGHLEY ROAD, PECKET WELL, HEBDEN BRIDGE, WEST YORKSHIRE, HX7 8QX","postcode":"HX7 8QX"}},{"type":"Feature","geometry":{"type":"Point","coordinates":[-2.0640167849810096,53.744510116562736]},"properties":{"name":"FRANKEL ESTATES LIMITED","address":"3 MOOR HOUSE VIEW, BLACKSHAW HEAD, HEBDEN BRIDGE, WEST YORKSHIRE, UNITED KINGDOM, HX7 7EL","postcode":"HX7 7EL"}},{"type":"Feature","geometry":{"type":"Point","coordinates":[-2.028462547123573,53.741640010115304]},"properties":{"name":"FROD DIGITAL DEVELOPMENT LTD","address":"EAST VIEW, SAVILE ROAD, HEBDEN BRIDGE, WEST YORKSHIRE, HX7 6LZ","postcode":"HX7 6LZ"}},{"type":"Feature","geometry":{"type":"Point","coordinates":[-2.015125613540276,53.744844924271995]},"properties":{"name":"FROZENSHEEP LTD","address":"12 ESKDALE MOUNT, HEBDEN BRIDGE, WEST YORKSHIRE, HX7 7EB","postcode":"HX7 7EB"}},{"type":"Feature","geometry":{"type":"Point","coordinates":[-1.9826762273829721,53.73083097258604]},"properties":{"name":"FUNKLE CHICKEN LTD","address":"17 BURNLEY ROAD, MYTHOLMROYD, HEBDEN BRIDGE, UNITED KINGDOM, HX7 5LH","postcode":"HX7 5LH"}},{"type":"Feature","geometry":{"type":"Point","coordinates":[-2.017055837808393,53.74187922816105]},"properties":{"name":"FUSION IT CONSULTANTS LTD","address":"5 THE MILL, BRUNSWICK STREET, HEBDEN BRIDGE, WEST YORKSHIRE, HX7 6AF","postcode":"HX7 6AF"}},{"type":"Feature","geometry":{"type":"Point","coordinates":[-2.0115599349341338,53.74161868218754]},"properties":{"name":"GARETH CONNOR LIMITED","address":"C/O BACK TO BASICS MANAGEMENT 4 GARDEN STREET, HEBDEN BRIDGE, WEST YORKSHIRE, UNITED KINGDOM, HX7 8AQ","postcode":"HX7 8AQ"}},{"type":"Feature","geometry":{"type":"Point","coordinates":[-1.9878034159293907,53.72953758537077]},"properties":{"name":"GASWORKS TODMORDEN LIMITED","address":"18 STOCKS GARDENS, MYTHOLMROYD, HEBDEN BRIDGE, WEST YORKSHIRE, UNITED KINGDOM, HX7 5AY","postcode":"HX7 5AY"}},{"type":"Feature","geometry":{"type":"Point","coordinates":[-1.973638704916698,53.72958937537757]},"properties":{"name":"GB AIR CONTROL LIMITED","address":"UNIT 14A & B, MODERNA BUSINESS PARK, MODERNA WAY MYTHOLMROYD, HEBDEN BRIDGE, WEST YORKSHIRE, HX7 5QQ","postcode":"HX7 5QQ"}},{"type":"Feature","geometry":{"type":"Point","coordinates":[-2.0144912506518753,53.7430895687761]},"properties":{"name":"GEANT4 ASSOCIATES INTERNATIONAL LTD","address":"9 ROYD TERRACE, HEBDEN BRIDGE, HX7 7BT","postcode":"HX7 7BT"}},{"type":"Feature","geometry":{"type":"Point","coordinates":[-2.013122632612106,53.742457631085514]},"properties":{"name":"GEEKOLOGY LTD","address":"TOWN HALL, ST. GEORGES STREET, HEBDEN BRIDGE, WEST YORKSHIRE, HX7 7BY","postcode":"HX7 7BY"}},{"type":"Feature","geometry":{"type":"Point","coordinates":[-2.0115513050686205,53.74576751337207]},"properties":{"name":"GEVULOT LIMITED","address":"6 BROUGHTON STREET, HEBDEN BRIDGE, WEST YORKSHIRE, ENGLAND, HX7 8JY","postcode":"HX7 8JY"}},{"type":"Feature","geometry":{"type":"Point","coordinates":[-2.0388000447196353,53.74397771367082]},"properties":{"name":"GHA 2011 LIMITED","address":"GREEN HOUSE FARM, NEW LANE, BLACKSHAWHEAD, HEBDEN BRIDGE, WEST YORKSHIRE, HX7 7JR","postcode":"HX7 7JR"}},{"type":"Feature","geometry":{"type":"Point","coordinates":[-1.9868877124811035,53.72758706460873]},"properties":{"name":"GIANT OAK TREE LIMITED","address":"18 THE BROOK, MYTHOLMROYD, HEBDEN BRIDGE, WEST YORKSHIRE, HX7 5ED","postcode":"HX7 5ED"}},{"type":"Feature","geometry":{"type":"Point","coordinates":[-2.0263792221476167,53.74348721454772]},"properties":{"name":"GIBBONS ASSOCIATES LTD","address":"HILL BRINK, MYTHOLM BANK, HEBDEN BRIDGE, HX7 6DL","postcode":"HX7 6DL"}},{"type":"Feature","geometry":{"type":"Point","coordinates":[-2.058037656731256,53.7518275188982]},"properties":{"name":"GISMOSYS LIMITED","address":"SHADE TAVERN, LOWER SMITHY, COLDEN, HEBDEN BRIDGE, WEST YORKSHIRE, UNITED KINGDOM, HX7 7HP","postcode":"HX7 7HP"}},{"type":"Feature","geometry":{"type":"Point","coordinates":[-1.9820591661593248,53.729448861603494]},"properties":{"name":"GNR MOTOR ENGINEERS LTD","address":"UNIT 1, GEORGE STREET, MYTHOLMROYD, HEBDEN BRIDGE, WEST YORKSHIRE, HX7 5DT","postcode":"HX7 5DT"}},{"type":"Feature","geometry":{"type":"Point","coordinates":[-1.9830069042418899,53.73084654526467]},"properties":{"name":"GOLDEN FISH 168 LIMITED","address":"3 BURNLEY ROAD, MYTHOLMROYD, HEBDEN BRIDGE, ENGLAND, HX7 5LH","postcode":"HX7 5LH"}},{"type":"Feature","geometry":{"type":"Point","coordinates":[-2.008117428098596,53.780670724874945]},"properties":{"name":"GRAIN FARM LIMITED","address":"GRAIN FARM, WADSWORTH, HEBDEN BRIDGE, WEST YORKSHIRE, HX7 8RG","postcode":"HX7 8RG"}},{"type":"Feature","geometry":{"type":"Point","coordinates":[-2.0199215134269584,53.74149222342466]},"properties":{"name":"GRAPHICA DISPLAY LIMITED","address":"95 BRIDGE LANES, HEBDEN BRIDGE, WEST YORKSHIRE, HX7 6AT","postcode":"HX7 6AT"}},{"type":"Feature","geometry":{"type":"Point","coordinates":[-2.0576398452419387,53.751827153685475]},"properties":{"name":"GREAT ROCK LTD.","address":"2 LOWER SMITHY, COLDEN, HEBDEN BRIDGE, WEST YORKSHIRE, HX7 7HP","postcode":"HX7 7HP"}},{"type":"Feature","geometry":{"type":"Point","coordinates":[-2.000094548329675,53.75081977644732]},"properties":{"name":"GREATER THAN LTD","address":"2 GREEN END, HEBDEN BRIDGE, WEST YORKSHIRE, UNITED KINGDOM, HX7 8SQ","postcode":"HX7 8SQ"}},{"type":"Feature","geometry":{"type":"Point","coordinates":[-2.0139845316133296,53.74189799352165]},"properties":{"name":"GREEN ALUMINIUM LIMITED","address":"HEBBLE HOUSE, OLDGATE, HEBDEN BRIDGE, WEST YORKSHIRE, HX7 6EN","postcode":"HX7 6EN"}},{"type":"Feature","geometry":{"type":"Point","coordinates":[-1.982651638586978,53.73083532747372]},"properties":{"name":"GREEN VALLEY ARBORISTS LTD","address":"17 BURNLEY ROAD, MYTHOLMROYD, HEBDEN BRIDGE, UNITED KINGDOM, HX7 5LH","postcode":"HX7 5LH"}},{"type":"Feature","geometry":{"type":"Point","coordinates":[-2.0375809577067985,53.75204785738819]},"properties":{"name":"GREENS PEDIGREE CHICKS LIMITED","address":"PINFOLD FARM, HEPTONSTALL, HEBDEN BRIDGE, HX7 7PD","postcode":"HX7 7PD"}},{"type":"Feature","geometry":{"type":"Point","coordinates":[-2.012462130420166,53.74256809246773]},"properties":{"name":"GREYFRIARS ADVISORY LIMITED","address":"5-6 WRAGLEY HOUSE, VALLEY ROAD, HEBDEN BRIDGE, WEST YORKSHIRE, HX7 7BN","postcode":"HX7 7BN"}},{"type":"Feature","geometry":{"type":"Point","coordinates":[-2.0156306475348127,53.74094091397985]},"properties":{"name":"GROUND FLOOR","address":"SALEM COMMUNITY CENTRE, CENTRAL STREET, HEBDEN BRIDGE, WEST YORKSHIRE, HX7 6HB","postcode":"HX7 6HB"}},{"type":"Feature","geometry":{"type":"Point","coordinates":[-2.012713907398977,53.74380107734139]},"properties":{"name":"GROWTH INTO AWARENESS (2014) LIMITED","address":"SUITE 5, BURLEES HOUSE, HANGINGROYD LANE, HEBDEN BRIDGE, ENGLAND, HX7 7DD","postcode":"HX7 7DD"}},{"type":"Feature","geometry":{"type":"Point","coordinates":[-1.9897535368034904,53.7195992743632]},"properties":{"name":"GSM PROJECTS LIMITED","address":"UNIT 1C DEAN HAY FARM, CRAGG VALE, HEBDEN BRIDGE, WEST YORKSHIRE, ENGLAND, HX7 5RU","postcode":"HX7 5RU"}},{"type":"Feature","geometry":{"type":"Point","coordinates":[-1.9950241431647748,53.73387387615815]},"properties":{"name":"GUARD TECH INDUSTRIAL SERVICES LIMITED","address":"HOLME END WORKS CALDERBROOK, BURNLEY ROAD, HEBDEN BRIDGE, WEST YORKSHIRE, HX7 8NX","postcode":"HX7 8NX"}},{"type":"Feature","geometry":{"type":"Point","coordinates":[-1.9948693926932037,53.7339801352184]},"properties":{"name":"GUARD-TECH SHEET METAL LIMITED","address":"HOLME END WORKS CALDERBROOK, BURNLEY ROAD, HEBDEN BRIDGE, WEST YORKSHIRE, ENGLAND, HX7 8NX","postcode":"HX7 8NX"}},{"type":"Feature","geometry":{"type":"Point","coordinates":[-2.016071507008321,53.741699133455036]},"properties":{"name":"GULLSEDGE LTD","address":"32 HANGINGROYD ROAD, HEBDEN BRIDGE, WEST YORKSHIRE, UNITED KINGDOM, HX7 6AH","postcode":"HX7 6AH"}},{"type":"Feature","geometry":{"type":"Point","coordinates":[-1.9969698802039249,53.73423742307211]},"properties":{"name":"GUY HALEY LIMITED","address":"CALDERBROOK HOUSE, HOLME END ROAD, HEBDEN BRIDGE, ENGLAND, HX7 8NE","postcode":"HX7 8NE"}},{"type":"Feature","geometry":{"type":"Point","coordinates":[-2.012491375562169,53.77015800443492]},"properties":{"name":"GWC CONSULTING LIMITED","address":"LOWER SMALL SHAW FARM OLD ROAD, PECKET WELL, HEBDEN BRIDGE, HX7 8RF","postcode":"HX7 8RF"}},{"type":"Feature","geometry":{"type":"Point","coordinates":[-1.9864731075186506,53.72573498981603]},"properties":{"name":"H & R PLANT SERVICES (TODMORDEN) LIMITED","address":"UNIT 10D TOPLAND COUNTRY BUSINESS PARK, CRAGG VALE, HEBDEN BRIDGE, WEST YORKSHIRE, HX7 5RW","postcode":"HX7 5RW"}},{"type":"Feature","geometry":{"type":"Point","coordinates":[-2.027352164975371,53.74590473684786]},"properties":{"name":"H D SALVAGE LIMITED","address":"18 EAVES AVENUE, HEBDEN BRIDGE, WEST YORKSHIRE, HX7 6DJ","postcode":"HX7 6DJ"}},{"type":"Feature","geometry":{"type":"Point","coordinates":[-1.9718938780431734,53.73078806096011]},"properties":{"name":"H.E.C. CONTRACTING LIMITED","address":"ELECTRIC HOUSE, MODERNA WAY, MYTHOLMROYD, HEBDEN BRIDGE, WEST YORKSHIRE, HX7 5PZ","postcode":"HX7 5PZ"}},{"type":"Feature","geometry":{"type":"Point","coordinates":[-2.011546574600116,53.74370479435614]},"properties":{"name":"H.O.H. ASSETS LIMITED","address":"UNIT 6 PENNINE INDUSTRIAL ESTATE, VALLEY ROAD, HEBDEN BRIDGE, WEST YORKSHIRE, HX7 7BZ","postcode":"HX7 7BZ"}},{"type":"Feature","geometry":{"type":"Point","coordinates":[-2.0126988451690098,53.743998555926346]},"properties":{"name":"HAIGH HEALTH CONSULTING LTD","address":"C/O FITTON & CO BURLEES HOUSE, HANGINGROYD LANE, HEBDEN BRIDGE, ENGLAND, HX7 7DD","postcode":"HX7 7DD"}},{"type":"Feature","geometry":{"type":"Point","coordinates":[-2.015882992156173,53.74157431550751]},"properties":{"name":"HALF BLUE","address":"BARCLAYS BANK CHAMBERS, MARKET STREET, HEBDEN BRIDGE, WEST YORKSHIRE, HX7 6AD","postcode":"HX7 6AD"}},{"type":"Feature","geometry":{"type":"Point","coordinates":[-2.0213444886577188,53.74112740919971]},"properties":{"name":"HALIFAX WIREFORM CO.LIMITED","address":"CALDER MILL, HEBDEN BRIDGE, WEST YORKSHIRE, HX7 6LJ","postcode":"HX7 6LJ"}},{"type":"Feature","geometry":{"type":"Point","coordinates":[-2.0164600439218088,53.73929351290115]},"properties":{"name":"HALL WAY PARTNERS LIMITED","address":"3 STANLEIGH CROFT, PALACE HOUSE ROAD, HEBDEN BRIDGE, WEST YORKSHIRE, HX7 6HD","postcode":"HX7 6HD"}},{"type":"Feature","geometry":{"type":"Point","coordinates":[-2.014115177813054,53.74603994938347]},"properties":{"name":"HANDMADE PARADE CIC","address":"UNIT 5, VICTORIA ROAD, HEBDEN BRIDGE, WEST YORKSHIRE, ENGLAND, HX7 8LN","postcode":"HX7 8LN"}},{"type":"Feature","geometry":{"type":"Point","coordinates":[-2.0169746789367573,53.74132464434738]},"properties":{"name":"HANNAH NUNN LIMITED","address":"26 MARKET STREET, HEBDEN BRIDGE, WEST YORKSHIRE, HX7 6AA","postcode":"HX7 6AA"}},{"type":"Feature","geometry":{"type":"Point","coordinates":[-2.0127625347914653,53.74385812199296]},"properties":{"name":"HANSROD CONSULTING LTD","address":"C/O FITTON & CO, BURLEES HOUSE, HANGINGROYD LANE, HEBDEN BRIDGE, ENGLAND, HX7 7DD","postcode":"HX7 7DD"}},{"type":"Feature","geometry":{"type":"Point","coordinates":[-2.00933341404976,53.74374486260045]},"properties":{"name":"HAPPY VALLEY DECORATING LIMITED","address":"9 EDWARD STREET, HEBDEN BRIDGE, WEST YORKSHIRE, HX7 8DF","postcode":"HX7 8DF"}},{"type":"Feature","geometry":{"type":"Point","coordinates":[-2.022537981743107,53.748967354901964]},"properties":{"name":"HARD ACT THEATRE COMPANY LTD","address":"28 CHURCH STREET, HEPTONSTALL, HEBDEN BRIDGE, HX7 7NS","postcode":"HX7 7NS"}},{"type":"Feature","geometry":{"type":"Point","coordinates":[-2.004523277259383,53.75608851748097]},"properties":{"name":"HARD BOILED EGG LIMITED","address":"COUSINVILLE, WADSWORTH, HEBDEN BRIDGE, ENGLAND, HX7 8TB","postcode":"HX7 8TB"}},{"type":"Feature","geometry":{"type":"Point","coordinates":[-2.023313094922951,53.7469423871502]},"properties":{"name":"HARDMAN INFORMATION TECHNOLOGY CONSULTING LTD","address":"25 BECKETTS CLOSE, HEPTONSTALL, HEBDEN BRIDGE, WEST YORKSHIRE, ENGLAND, HX7 7LJ","postcode":"HX7 7LJ"}},{"type":"Feature","geometry":{"type":"Point","coordinates":[-2.0824467007415213,53.74768568393043]},"properties":{"name":"HARTLEY ACCOMODATION LTD","address":"MOORHALL FARM COTTAGE MOORHALL FARM COTTAGE, BLACKSHAW HEAD, HEBDEN BRIDGE, UNITED KINGDOM, HX7 7JA","postcode":"HX7 7JA"}},{"type":"Feature","geometry":{"type":"Point","coordinates":[-2.0260253048085346,53.741343989348074]},"properties":{"name":"HAVELOCK PLACE MANAGEMENT (WHITBY) LIMITED","address":"HILLCROFT, STUBBING DRIVE, HEBDEN BRIDGE, WEST YORKSHIRE, WEST YORKSHIRE, HX7 6LS","postcode":"HX7 6LS"}},{"type":"Feature","geometry":{"type":"Point","coordinates":[-2.0232433122068647,53.741066117169]},"properties":{"name":"HEART TO HEART CONNECTION LTD","address":"11 TRINITY STREET, HEBDEN BRIDGE, W YORKSHIRE, HX7 6LP","postcode":"HX7 6LP"}},{"type":"Feature","geometry":{"type":"Point","coordinates":[-2.074350340885276,53.761878816022374]},"properties":{"name":"HEATH AND HERB LIMITED","address":"POPPLES CLOSE FARM, EDGE LANE HEPTONSTALL, HEBDEN BRIDGE, UNITED KINGDOM, HX7 7PG","postcode":"HX7 7PG"}},{"type":"Feature","geometry":{"type":"Point","coordinates":[-1.9799062258327023,53.736710360086406]},"properties":{"name":"HEATHER J CONNOR LIMITED","address":"HILL HOUSE FARM, RAW LANE MYTHOLMROYD, HEBDEN BRIDGE, WEST YORKSHIRE, UNITED KINGDOM, HX7 5RF","postcode":"HX7 5RF"}},{"type":"Feature","geometry":{"type":"Point","coordinates":[-2.014101240841356,53.74196133897441]},"properties":{"name":"HEBBLE HOUSE LTD","address":"HEBBLE HOUSE, OLDGATE, HEBDEN BRIDGE, UNITED KINGDOM, HX7 6EN","postcode":"HX7 6EN"}},{"type":"Feature","geometry":{"type":"Point","coordinates":[-2.013834575087041,53.746097074012084]},"properties":{"name":"HEBDEN BRIDGE ALTERNATIVE TECHNOLOGY CENTRE","address":"UNIT 7, VICTORIA WORKS, VICTORIA ROAD, HEBDEN BRIDGE, WEST YORKSHIRE, HX7 8LN","postcode":"HX7 8LN"}},{"type":"Feature","geometry":{"type":"Point","coordinates":[-2.013123291308216,53.742566628671554]},"properties":{"name":"HEBDEN BRIDGE ARTS FESTIVAL LTD","address":"HEBDEN BRIDGE TOWN HALL, ST. GEORGES STREET, HEBDEN BRIDGE, WEST YORKSHIRE, HX7 7BY","postcode":"HX7 7BY"}},{"type":"Feature","geometry":{"type":"Point","coordinates":[-2.0821192956762395,53.74414070671581]},"properties":{"name":"HEBDEN BRIDGE BREWING COMPANY LIMITED","address":"SMITHY FARM LONG CAUSEWAY, BLACKSHAW HEAD, HEBDEN BRIDGE, WEST YORKSHIRE, UNITED KINGDOM, HX7 7JB","postcode":"HX7 7JB"}},{"type":"Feature","geometry":{"type":"Point","coordinates":[-2.0591220155791476,53.74944643313767]},"properties":{"name":"HEBDEN BRIDGE CAMPING COMPANY LIMITED","address":"7 HIGH STREET, BLACKSHAW HEAD, HEBDEN BRIDGE, WEST YORKSHIRE, UNITED KINGDOM, HX7 7HY","postcode":"HX7 7HY"}},{"type":"Feature","geometry":{"type":"Point","coordinates":[-2.046879951666166,53.73582726040867]},"properties":{"name":"HEBDEN BRIDGE CHIROPRACTIC LTD","address":"POTBALL, JUMBLE HOLE ROAD, HEBDEN BRIDGE, WEST YORKSHIRE, HX7 6PS","postcode":"HX7 6PS"}},{"type":"Feature","geometry":{"type":"Point","coordinates":[-2.0128336122471784,53.742537561585635]},"properties":{"name":"HEBDEN BRIDGE COMMUNITY ASSOCIATION LTD","address":"HEBDEN BRIDGE TOWN HALL, ST. GEORGES STREET, HEBDEN BRIDGE, WEST YORKSHIRE, HX7 7BY","postcode":"HX7 7BY"}},{"type":"Feature","geometry":{"type":"Point","coordinates":[-2.0111846290676287,53.740353824557026]},"properties":{"name":"HEBDEN BRIDGE DENTAL CARE LTD","address":"16 NEW ROAD, HEBDEN BRIDGE, WEST YORKSHIRE, HX7 8AD","postcode":"HX7 8AD"}},{"type":"Feature","geometry":{"type":"Point","coordinates":[-1.9973682074722345,53.75621586109818]},"properties":{"name":"HEBDEN BRIDGE EQUESTRIAN CENTRE LIMITED","address":"ALLSWELL FARM, WADSWORTH, HEBDEN BRIDGE, WEST YORKSHIRE, UNITED KINGDOM, HX7 8TF","postcode":"HX7 8TF"}},{"type":"Feature","geometry":{"type":"Point","coordinates":[-1.991716124842223,53.741390459703894]},"properties":{"name":"HEBDEN BRIDGE GOLF CLUB (2015) LIMITED","address":"GREAT MOUNT, WADSWORTH, HEBDEN BRIDGE, WEST YORKSHIRE, HX7 8PH","postcode":"HX7 8PH"}},{"type":"Feature","geometry":{"type":"Point","coordinates":[-1.9917537507861667,53.741258717497715]},"properties":{"name":"HEBDEN BRIDGE GOLF CLUB LIMITED","address":"GREAT MOUNT, WADSWORTH, HEBDEN BRIDGE, WEST YORKSHIRE, HX7 8PH","postcode":"HX7 8PH"}},{"type":"Feature","geometry":{"type":"Point","coordinates":[-2.0126849664662037,53.74380413532678]},"properties":{"name":"HEBDEN BRIDGE MASONIC HALL ASSOCIATION LIMITED","address":"THE MASONIC HALL, HANGINGROYD LANE, HEBDEN BRIDGE WEST YORKS, HX7 7DD","postcode":"HX7 7DD"}},{"type":"Feature","geometry":{"type":"Point","coordinates":[-2.017291003883373,53.74039157159119]},"properties":{"name":"HEBDEN BRIDGE PARTNERSHIP LTD","address":"2 HEBBLE END, HEBDEN BRIDGE, WEST YORKSHIRE, HX7 6HJ","postcode":"HX7 6HJ"}},{"type":"Feature","geometry":{"type":"Point","coordinates":[-2.0135214845662452,53.73790433051923]},"properties":{"name":"HEBDEN BRIDGE PATTERNS LIMITED","address":"PALACE HOUSE ROAD, HEBDEN BRIDGE, WEST YORKSHIRE, HX7 6HW","postcode":"HX7 6HW"}},{"type":"Feature","geometry":{"type":"Point","coordinates":[-2.014022252534813,53.74367020143089]},"properties":{"name":"HEBDEN BRIDGE PIANO FESTIVAL","address":"3 REGENT PLACE, HEBDEN BRIDGE, WEST YORKSHIRE, HX7 7DF","postcode":"HX7 7DF"}},{"type":"Feature","geometry":{"type":"Point","coordinates":[-2.023648578458625,53.74249702666403]},"properties":{"name":"HEBDEN DATA SERVICES LIMITED","address":"14 COLDEN CLOSE, HEBDEN BRIDGE, WEST YORKSHIRE, UNITED KINGDOM, HX7 6DY","postcode":"HX7 6DY"}},{"type":"Feature","geometry":{"type":"Point","coordinates":[-2.010113733322857,53.7424112128719]},"properties":{"name":"HEBDEN MANAGEMENT SOLUTIONS LIMITED","address":"9 CLIFFE STREET, HEBDEN BRIDGE, WEST YORKSHIRE, HX7 8BY","postcode":"HX7 8BY"}},{"type":"Feature","geometry":{"type":"Point","coordinates":[-2.0130401272216414,53.7500985865923]},"properties":{"name":"HEBDEN MILLS LIMITED","address":"BROOK LEIGH, LEE MILL ROAD, HEBDEN BRIDGE, WEST YORKSHIRE, HX7 7AB","postcode":"HX7 7AB"}},{"type":"Feature","geometry":{"type":"Point","coordinates":[-1.9799066124673383,53.73662789874857]},"properties":{"name":"HEBDEN RENOVATION COMPANY LIMITED","address":"BANK COTTAGE, OFF RAW LANE, MYTHOLMROYD, HEBDEN BRIDGE, WEST YORKSHIRE, HX7 5RF","postcode":"HX7 5RF"}},{"type":"Feature","geometry":{"type":"Point","coordinates":[-2.015925794371222,53.74156088960832]},"properties":{"name":"HEBDEN ROYD & DISTRICT SWIMMING POOL ASSOCIATION LIMITED","address":"BARCLAYS BANK CHAMBERS, MARKET STREET, HEBDEN BRIDGE, WEST YORKSHIRE, HX7 6AD","postcode":"HX7 6AD"}},{"type":"Feature","geometry":{"type":"Point","coordinates":[-2.0132546001548874,53.74431511438169]},"properties":{"name":"HEBDEN ROYD DEVELOPMENT LIMITED LIABILITY PARTNERSHIP","address":"LINDEN MILL, LINDEN ROAD, HEBDEN BRIDGE, WEST YORKSHIRE, HX7 7DP","postcode":"HX7 7DP"}},{"type":"Feature","geometry":{"type":"Point","coordinates":[-2.015905189834374,53.741514532332296]},"properties":{"name":"HEBDEN ROYD SWIMMING POOL LIMITED","address":"BARCLAYS BANK CHAMBERS, MARKET STREET, HEBDEN BRIDGE, WEST YORKSHIRE, HX7 6AD","postcode":"HX7 6AD"}},{"type":"Feature","geometry":{"type":"Point","coordinates":[-2.012262338257479,53.740377441224695]},"properties":{"name":"HEBDEN VALLEY IT SOLUTIONS LIMITED","address":"4 BUTLERS WHARF, NEW ROAD, HEBDEN BRIDGE, ENGLAND, HX7 8AF","postcode":"HX7 8AF"}},{"type":"Feature","geometry":{"type":"Point","coordinates":[-2.022493067183395,53.74097446779814]},"properties":{"name":"HEBDENSOFT LIMITED","address":"15 CAMBRIDGE STREET, HEBDEN BRIDGE, WEST YORKSHIRE, ENGLAND, HX7 6LN","postcode":"HX7 6LN"}},{"type":"Feature","geometry":{"type":"Point","coordinates":[-2.033286374190138,53.737271801306385]},"properties":{"name":"HEIGHT SAFETY FACILITIES LTD","address":"8 THISTLE BOTTOM, HEBDEN BRIDGE, WEST YORKSHIRE, UNITED KINGDOM, HX7 6NH","postcode":"HX7 6NH"}},{"type":"Feature","geometry":{"type":"Point","coordinates":[-1.9865625670184106,53.729308603843876]},"properties":{"name":"HENRY HELLIWELL LIMITED","address":"3 THRUSH HILL ROAD, MYTHOLMROYD, WEST YORKSHIRE, UNITED KINGDOM, HX7 5AQ","postcode":"HX7 5AQ"}},{"type":"Feature","geometry":{"type":"Point","coordinates":[-2.0202295476461245,53.745539239638724]},"properties":{"name":"HEPTONSTALL ALLOTMENT & GARDEN SOCIETY LIMITED","address":"HEPTONSTALL SOCIAL & BOWLING CLUB ACRE LANE, HEPTONSTALL, HEBDEN BRIDGE, WEST YORKSHIRE, HX7 7LT","postcode":"HX7 7LT"}},{"type":"Feature","geometry":{"type":"Point","coordinates":[-2.016866220639234,53.74156796175372]},"properties":{"name":"HG1 PROPERTY SOLUTIONS LTD","address":"5 THE MILL, BRUNSWICK STREET, HEBDEN BRIDGE, WEST YORKSHIRE, HX7 6AF","postcode":"HX7 6AF"}},{"type":"Feature","geometry":{"type":"Point","coordinates":[-1.9825038194855786,53.73095360760583]},"properties":{"name":"HOBSON FAMILY BAKERS LTD","address":"17 BURNLEY ROAD, MYTHOLMROYD, HEBDEN BRIDGE, WEST YORKSHIRE, UNITED KINGDOM, HX7 5LH","postcode":"HX7 5LH"}},{"type":"Feature","geometry":{"type":"Point","coordinates":[-2.0130413549819015,53.743729834537646]},"properties":{"name":"HODGSON HEATING LIMITED","address":"BURLEES HOUSE, HANGINGROYD LANE, HEBDEN BRIDGE, WEST YORKSHIRE, HX7 7DD","postcode":"HX7 7DD"}},{"type":"Feature","geometry":{"type":"Point","coordinates":[-2.0158919817722545,53.747763155144156]},"properties":{"name":"HOLLINS MANAGEMENT LIMITED","address":"12 HOLLINS, HEBDEN BRIDGE, WEST YORKSHIRE, HX7 7DZ","postcode":"HX7 7DZ"}},{"type":"Feature","geometry":{"type":"Point","coordinates":[-1.9995791832256864,53.74030462637542]},"properties":{"name":"HOLME HOUSE PROPERTIES (HEBDEN BRIDGE) LIMITED","address":"STEPHENSON HOUSE, BURLEES LANE, HEBDEN BRIDGE, WEST YORKSHIRE, HX7 8PS","postcode":"HX7 8PS"}},{"type":"Feature","geometry":{"type":"Point","coordinates":[-2.0112748303910606,53.747433107140594]},"properties":{"name":"HOLME STREET ARTS CENTRE LTD","address":"WOODVILLE, 6 KEIGHLEY ROAD, HEBDEN BRIDGE, WEST YORKSHIRE, HX7 8LL","postcode":"HX7 8LL"}},{"type":"Feature","geometry":{"type":"Point","coordinates":[-2.015979183371378,53.74152633963207]},"properties":{"name":"HOLMES TEC LIMITED","address":"BARCLAYS BANK CHAMBERS, MARKET STREET, HEBDEN BRIDGE, WEST YORKSHIRE, HX7 6AD","postcode":"HX7 6AD"}},{"type":"Feature","geometry":{"type":"Point","coordinates":[-2.015298627401756,53.74597247644844]},"properties":{"name":"HOTTIES THERMAL PACKS LIMITED","address":"1 SLATER BANK, HEBDEN BRIDGE, WEST YORKSHIRE, HX7 7DY","postcode":"HX7 7DY"}},{"type":"Feature","geometry":{"type":"Point","coordinates":[-2.015766672150792,53.74093155992905]},"properties":{"name":"HOUR CAR (UN) LIMITED","address":"SALEM COMMUNITY CENTRE, CENTRAL STREET, HEBDEN BRIDGE, WEST YORKSHIRE, HX7 6HB","postcode":"HX7 6HB"}},{"type":"Feature","geometry":{"type":"Point","coordinates":[-1.9886684772936156,53.72488349492155]},"properties":{"name":"HOUSE OF PLANTS LIMITED(THE)","address":"HOO HOLE WORKS, CRAGG ROAD, MYTHOLMROYD, W YORKS, HX7 5JT","postcode":"HX7 5JT"}},{"type":"Feature","geometry":{"type":"Point","coordinates":[-1.9994093832327902,53.71078809570024]},"properties":{"name":"HOVERFLIES LIMITED","address":"UPPER LUMB BARN UPPER LUMB LANE, CRAGG VALE, HEBDEN BRIDGE, WEST YORKSHIRE, UNITED KINGDOM, HX7 5SH","postcode":"HX7 5SH"}},{"type":"Feature","geometry":{"type":"Point","coordinates":[-2.0170643631903644,53.74160642203479]},"properties":{"name":"HRR LIMITED","address":"5 THE MILL, BRUNSWICK STREET, HEBDEN BRIDGE, WEST YORKSHIRE, UNITED KINGDOM, HX7 6AF","postcode":"HX7 6AF"}},{"type":"Feature","geometry":{"type":"Point","coordinates":[-2.017330209886971,53.740642112404615]},"properties":{"name":"I Q EQUITY LIMITED","address":"BEEHIVE MILLS, HEBBLE END, HEBDEN BRIDGE, WEST YORKSHIRE, UNITED KINGDOM, HX7 6HJ","postcode":"HX7 6HJ"}},{"type":"Feature","geometry":{"type":"Point","coordinates":[-2.0234854501395576,53.741137377401834]},"properties":{"name":"IAN APPLEBY LTD","address":"11 TRINITY STREET, HEBDEN BRIDGE, HALIFAX, HX7 6LP","postcode":"HX7 6LP"}},{"type":"Feature","geometry":{"type":"Point","coordinates":[-1.999895053764299,53.70517260428536]},"properties":{"name":"IAN LUMB GASHOLDERS LIMITED","address":"STONE HAVEN, CHURCH BANK, CRAGG VALE, HEBDEN BRIDGE, HX7 5TF","postcode":"HX7 5TF"}},{"type":"Feature","geometry":{"type":"Point","coordinates":[-2.014229303157243,53.74109377148678]},"properties":{"name":"IFONEZ LTD","address":"21A WEST END, HEBDEN BRIDGE, UNITED KINGDOM, HX7 8UQ","postcode":"HX7 8UQ"}},{"type":"Feature","geometry":{"type":"Point","coordinates":[-2.012248113746838,53.74209112357479]},"properties":{"name":"IL MULINO (HEBDEN BRIDGE) LIMITED","address":"BRIDGE MILL, ST GEORGE'S SQUARE, HEBDEN BRIDGE, WEST YORKSHRIE, HX7 8ET","postcode":"HX7 8ET"}},{"type":"Feature","geometry":{"type":"Point","coordinates":[-2.019562862082725,53.74137528060452]},"properties":{"name":"ILC LEARNING LIMITED","address":"95 BRIDGE LANES, BRIDGE LANES, HEBDEN BRIDGE, WEST YORKSHIRE, HX7 6AT","postcode":"HX7 6AT"}},{"type":"Feature","geometry":{"type":"Point","coordinates":[-2.05910147674101,53.755311341541194]},"properties":{"name":"1000FEETUP LIMITED","address":"1 BROADSTONE COTTAGE, HEBDEN BRIDGE, WEST YORKSHIRE, HX7 7PQ","postcode":"HX7 7PQ"}},{"type":"Feature","geometry":{"type":"Point","coordinates":[-2.0133986720708283,53.73781733283052]},"properties":{"name":"10TH FLOOR IT CONSULTING LIMITED","address":"THE OLD PRESBYTERY, 15 PALACE HOUSE ROAD, HEBDEN BRIDGE, WEST YORKSHIRE, HX7 6HW","postcode":"HX7 6HW"}},{"type":"Feature","geometry":{"type":"Point","coordinates":[-2.0105460102137607,53.74562664084957]},"properties":{"name":"2 TEMPO LIMITED","address":"18 UNITY STREET, HEBDEN BRIDGE, WEST YORKSHIRE, HX7 8HQ","postcode":"HX7 8HQ"}},{"type":"Feature","geometry":{"type":"Point","coordinates":[-1.9867540549844667,53.72587494972997]},"properties":{"name":"360 PIXIE LIMITED","address":"UNIT 4C TOPLAND COUNTRY BUSINESS PARK, CRAGG VALE, HEBDEN BRIDGE, WEST YORKSHIRE, HX7 5RW","postcode":"HX7 5RW"}},{"type":"Feature","geometry":{"type":"Point","coordinates":[-2.0001463851314716,53.750867849106264]},"properties":{"name":"3MT LIMITED","address":"2 GREEN END, HEBDEN BRIDGE, WEST YORKSHIRE, UNITED KINGDOM, HX7 8SQ","postcode":"HX7 8SQ"}},{"type":"Feature","geometry":{"type":"Point","coordinates":[-2.038463537427624,53.74371413316718]},"properties":{"name":"5 TOLLINGTON PLACE MANAGEMENT LIMITED","address":"HIGH BARN LOWER RAWTONSTALL, BLACKSHAW HEAD, HEBDEN BRIDGE, WEST YORKSHIRE, HX7 7JR","postcode":"HX7 7JR"}},{"type":"Feature","geometry":{"type":"Point","coordinates":[-2.0172111538581414,53.741701391924984]},"properties":{"name":"A & P PROJECT MANAGEMENT LTD","address":"5 THE MILL, BRUNSWICK STREET, HEBDEN BRIDGE, WEST YORKSHIRE, HX7 6AF","postcode":"HX7 6AF"}},{"type":"Feature","geometry":{"type":"Point","coordinates":[-1.973462919307508,53.72963445705761]},"properties":{"name":"A D PLASTIC SOLUTIONS LIMITED","address":"UNIT 7 MODERNA BUSINESS PARK, MODERNA WAY, MYTHOLMROYD, HEBDEN BRIDGE, WEST YORKSHIRE, HX7 5QQ","postcode":"HX7 5QQ"}},{"type":"Feature","geometry":{"type":"Point","coordinates":[-1.982716074524628,53.731005528798306]},"properties":{"name":"A G UPHOLSTERY LIMITED","address":"17 BURNLEY ROAD, MYTHOLMROYD, HEBDEN BRIDGE, YORKS, UNITED KINGDOM, HX7 5LH","postcode":"HX7 5LH"}},{"type":"Feature","geometry":{"type":"Point","coordinates":[-2.0129318950499044,53.743676966120276]},"properties":{"name":"A R B CONTRACTORS LIMITED","address":"BURLEES HOUSE, HANGINGROYD LANE, HEBDEN BRIDGE, WEST YORKSHIRE, HX7 7DD","postcode":"HX7 7DD"}},{"type":"Feature","geometry":{"type":"Point","coordinates":[-2.004826958243738,53.7446862229776]},"properties":{"name":"ABACUS ACCESS LIMITED","address":"3 SANDY GATE, HEBDEN BRIDGE, WEST YORKSHIRE, UNITED KINGDOM, HX7 8HZ","postcode":"HX7 8HZ"}},{"type":"Feature","geometry":{"type":"Point","coordinates":[-1.9775139424739163,53.73013654380988]},"properties":{"name":"ABACUS PICTURE FRAMING AND GALLERY LTD","address":"UNIT 6 WHITE LEE, MYTHOLMROYD, HEBDEN BRIDGE, WEST YORKSHIRE, HX7 5AD","postcode":"HX7 5AD"}},{"type":"Feature","geometry":{"type":"Point","coordinates":[-2.0159191622503188,53.74162104860249]},"properties":{"name":"ACADEMY OF CLINICAL EXCELLENCE LIMITED","address":"BARCLAYS BANK CHAMBERS, MARKET STREET, HEBDEN BRIDGE, WEST YORKSHIRE, HX7 6AD","postcode":"HX7 6AD"}},{"type":"Feature","geometry":{"type":"Point","coordinates":[-1.9826616360958669,53.73084908780847]},"properties":{"name":"ACCATURA LTD","address":"17 BURNLEY ROAD, MYTHOLMROYD, HEBDEN BRIDGE, UNITED KINGDOM, HX7 5LH","postcode":"HX7 5LH"}},{"type":"Feature","geometry":{"type":"Point","coordinates":[-2.0591334866951416,53.75521185692174]},"properties":{"name":"1000FEETUP LIMITED","address":"1 BROADSTONE COTTAGE, HEBDEN BRIDGE, WEST YORKSHIRE, HX7 7PQ","postcode":"HX7 7PQ"}},{"type":"Feature","geometry":{"type":"Point","coordinates":[-2.013130945805802,53.73785377701967]},"properties":{"name":"10TH FLOOR IT CONSULTING LIMITED","address":"THE OLD PRESBYTERY, 15 PALACE HOUSE ROAD, HEBDEN BRIDGE, WEST YORKSHIRE, HX7 6HW","postcode":"HX7 6HW"}},{"type":"Feature","geometry":{"type":"Point","coordinates":[-2.010386588059444,53.745416766232175]},"properties":{"name":"2 TEMPO LIMITED","address":"18 UNITY STREET, HEBDEN BRIDGE, WEST YORKSHIRE, HX7 8HQ","postcode":"HX7 8HQ"}},{"type":"Feature","geometry":{"type":"Point","coordinates":[-1.9865273906982666,53.72564392764848]},"properties":{"name":"360 PIXIE LIMITED","address":"UNIT 4C TOPLAND COUNTRY BUSINESS PARK, CRAGG VALE, HEBDEN BRIDGE, WEST YORKSHIRE, HX7 5RW","postcode":"HX7 5RW"}},{"type":"Feature","geometry":{"type":"Point","coordinates":[-2.0000733277423994,53.750805414312744]},"properties":{"name":"3MT LIMITED","address":"2 GREEN END, HEBDEN BRIDGE, WEST YORKSHIRE, UNITED KINGDOM, HX7 8SQ","postcode":"HX7 8SQ"}},{"type":"Feature","geometry":{"type":"Point","coordinates":[-2.038512763772569,53.74412746356948]},"properties":{"name":"5 TOLLINGTON PLACE MANAGEMENT LIMITED","address":"HIGH BARN LOWER RAWTONSTALL, BLACKSHAW HEAD, HEBDEN BRIDGE, WEST YORKSHIRE, HX7 7JR","postcode":"HX7 7JR"}},{"type":"Feature","geometry":{"type":"Point","coordinates":[-2.017164385311222,53.74149949171387]},"properties":{"name":"A & P PROJECT MANAGEMENT LTD","address":"5 THE MILL, BRUNSWICK STREET, HEBDEN BRIDGE, WEST YORKSHIRE, HX7 6AF","postcode":"HX7 6AF"}},{"type":"Feature","geometry":{"type":"Point","coordinates":[-1.973625219943274,53.72964299177402]},"properties":{"name":"A D PLASTIC SOLUTIONS LIMITED","address":"UNIT 7 MODERNA BUSINESS PARK, MODERNA WAY, MYTHOLMROYD, HEBDEN BRIDGE, WEST YORKSHIRE, HX7 5QQ","postcode":"HX7 5QQ"}},{"type":"Feature","geometry":{"type":"Point","coordinates":[-1.9824700193617548,53.730779568581205]},"properties":{"name":"A G UPHOLSTERY LIMITED","address":"17 BURNLEY ROAD, MYTHOLMROYD, HEBDEN BRIDGE, YORKS, UNITED KINGDOM, HX7 5LH","postcode":"HX7 5LH"}},{"type":"Feature","geometry":{"type":"Point","coordinates":[-2.012713449994069,53.74378372147083]},"properties":{"name":"A R B CONTRACTORS LIMITED","address":"BURLEES HOUSE, HANGINGROYD LANE, HEBDEN BRIDGE, WEST YORKSHIRE, HX7 7DD","postcode":"HX7 7DD"}},{"type":"Feature","geometry":{"type":"Point","coordinates":[-2.004978337906088,53.74475878102312]},"properties":{"name":"ABACUS ACCESS LIMITED","address":"3 SANDY GATE, HEBDEN BRIDGE, WEST YORKSHIRE, UNITED KINGDOM, HX7 8HZ","postcode":"HX7 8HZ"}},{"type":"Feature","geometry":{"type":"Point","coordinates":[-1.9774677001254197,53.73000148353334]},"properties":{"name":"ABACUS PICTURE FRAMING AND GALLERY LTD","address":"UNIT 6 WHITE LEE, MYTHOLMROYD, HEBDEN BRIDGE, WEST YORKSHIRE, HX7 5AD","postcode":"HX7 5AD"}},{"type":"Feature","geometry":{"type":"Point","coordinates":[-2.016029504209345,53.74136491812005]},"properties":{"name":"ACADEMY OF CLINICAL EXCELLENCE LIMITED","address":"BARCLAYS BANK CHAMBERS, MARKET STREET, HEBDEN BRIDGE, WEST YORKSHIRE, HX7 6AD","postcode":"HX7 6AD"}},{"type":"Feature","geometry":{"type":"Point","coordinates":[-1.9826261505499283,53.730965554708874]},"properties":{"name":"ACCATURA LTD","address":"17 BURNLEY ROAD, MYTHOLMROYD, HEBDEN BRIDGE, UNITED KINGDOM, HX7 5LH","postcode":"HX7 5LH"}},{"type":"Feature","geometry":{"type":"Point","coordinates":[-2.059323762861752,53.755304603611364]},"properties":{"name":"1000FEETUP LIMITED","address":"1 BROADSTONE COTTAGE, HEBDEN BRIDGE, WEST YORKSHIRE, HX7 7PQ","postcode":"HX7 7PQ"}},{"type":"Feature","geometry":{"type":"Point","coordinates":[-2.013186299760476,53.737848755984345]},"properties":{"name":"10TH FLOOR IT CONSULTING LIMITED","address":"THE OLD PRESBYTERY, 15 PALACE HOUSE ROAD, HEBDEN BRIDGE, WEST YORKSHIRE, HX7 6HW","postcode":"HX7 6HW"}},{"type":"Feature","geometry":{"type":"Point","coordinates":[-2.010520899000198,53.74556975434024]},"properties":{"name":"2 TEMPO LIMITED","address":"18 UNITY STREET, HEBDEN BRIDGE, WEST YORKSHIRE, HX7 8HQ","postcode":"HX7 8HQ"}},{"type":"Feature","geometry":{"type":"Point","coordinates":[-1.9866747328116023,53.72555776747102]},"properties":{"name":"360 PIXIE LIMITED","address":"UNIT 4C TOPLAND COUNTRY BUSINESS PARK, CRAGG VALE, HEBDEN BRIDGE, WEST YORKSHIRE, HX7 5RW","postcode":"HX7 5RW"}},{"type":"Feature","geometry":{"type":"Point","coordinates":[-2.0003785163056977,53.75075061871603]},"properties":{"name":"3MT LIMITED","address":"2 GREEN END, HEBDEN BRIDGE, WEST YORKSHIRE, UNITED KINGDOM, HX7 8SQ","postcode":"HX7 8SQ"}},{"type":"Feature","geometry":{"type":"Point","coordinates":[-2.0384554593977837,53.74392836903281]},"properties":{"name":"5 TOLLINGTON PLACE MANAGEMENT LIMITED","address":"HIGH BARN LOWER RAWTONSTALL, BLACKSHAW HEAD, HEBDEN BRIDGE, WEST YORKSHIRE, HX7 7JR","postcode":"HX7 7JR"}},{"type":"Feature","geometry":{"type":"Point","coordinates":[-2.0171995389103445,53.74167488419429]},"properties":{"name":"A & P PROJECT MANAGEMENT LTD","address":"5 THE MILL, BRUNSWICK STREET, HEBDEN BRIDGE, WEST YORKSHIRE, HX7 6AF","postcode":"HX7 6AF"}},{"type":"Feature","geometry":{"type":"Point","coordinates":[-1.9735402744295938,53.72951311219312]},"properties":{"name":"A D PLASTIC SOLUTIONS LIMITED","address":"UNIT 7 MODERNA BUSINESS PARK, MODERNA WAY, MYTHOLMROYD, HEBDEN BRIDGE, WEST YORKSHIRE, HX7 5QQ","postcode":"HX7 5QQ"}},{"type":"Feature","geometry":{"type":"Point","coordinates":[-1.9826217407298998,53.73081247396697]},"properties":{"name":"A G UPHOLSTERY LIMITED","address":"17 BURNLEY ROAD, MYTHOLMROYD, HEBDEN BRIDGE, YORKS, UNITED KINGDOM, HX7 5LH","postcode":"HX7 5LH"}},{"type":"Feature","geometry":{"type":"Point","coordinates":[-2.01271041361961,53.74379504582095]},"properties":{"name":"A R B CONTRACTORS LIMITED","address":"BURLEES HOUSE, HANGINGROYD LANE, HEBDEN BRIDGE, WEST YORKSHIRE, HX7 7DD","postcode":"HX7 7DD"}},{"type":"Feature","geometry":{"type":"Point","coordinates":[-2.0046452786803624,53.74463448135116]},"properties":{"name":"ABACUS ACCESS LIMITED","address":"3 SANDY GATE, HEBDEN BRIDGE, WEST YORKSHIRE, UNITED KINGDOM, HX7 8HZ","postcode":"HX7 8HZ"}},{"type":"Feature","geometry":{"type":"Point","coordinates":[-1.9775299746247879,53.73015414860749]},"properties":{"name":"ABACUS PICTURE FRAMING AND GALLERY LTD","address":"UNIT 6 WHITE LEE, MYTHOLMROYD, HEBDEN BRIDGE, WEST YORKSHIRE, HX7 5AD","postcode":"HX7 5AD"}},{"type":"Feature","geometry":{"type":"Point","coordinates":[-2.0159183001809113,53.7412702530944]},"properties":{"name":"ACADEMY OF CLINICAL EXCELLENCE LIMITED","address":"BARCLAYS BANK CHAMBERS, MARKET STREET, HEBDEN BRIDGE, WEST YORKSHIRE, HX7 6AD","postcode":"HX7 6AD"}},{"type":"Feature","geometry":{"type":"Point","coordinates":[-1.9826114831376143,53.73071595023259]},"properties":{"name":"ACCATURA LTD","address":"17 BURNLEY ROAD, MYTHOLMROYD, HEBDEN BRIDGE, UNITED KINGDOM, HX7 5LH","postcode":"HX7 5LH"}},{"type":"Feature","geometry":{"type":"Point","coordinates":[-2.059139032519518,53.75518685508443]},"properties":{"name":"1000FEETUP LIMITED","address":"1 BROADSTONE COTTAGE, HEBDEN BRIDGE, WEST YORKSHIRE, HX7 7PQ","postcode":"HX7 7PQ"}},{"type":"Feature","geometry":{"type":"Point","coordinates":[-2.0132794482743734,53.73787159015607]},"properties":{"name":"10TH FLOOR IT CONSULTING LIMITED","address":"THE OLD PRESBYTERY, 15 PALACE HOUSE ROAD, HEBDEN BRIDGE, WEST YORKSHIRE, HX7 6HW","postcode":"HX7 6HW"}},{"type":"Feature","geometry":{"type":"Point","coordinates":[-2.010502486568172,53.74553169573107]},"properties":{"name":"2 TEMPO LIMITED","address":"18 UNITY STREET, HEBDEN BRIDGE, WEST YORKSHIRE, HX7 8HQ","postcode":"HX7 8HQ"}},{"type":"Feature","geometry":{"type":"Point","coordinates":[-1.9866923070297318,53.72568837540143]},"properties":{"name":"360 PIXIE LIMITED","address":"UNIT 4C TOPLAND COUNTRY BUSINESS PARK, CRAGG VALE, HEBDEN BRIDGE, WEST YORKSHIRE, HX7 5RW","postcode":"HX7 5RW"}},{"type":"Feature","geometry":{"type":"Point","coordinates":[-2.0000990953929207,53.75075581117423]},"properties":{"name":"3MT LIMITED","address":"2 GREEN END, HEBDEN BRIDGE, WEST YORKSHIRE, UNITED KINGDOM, HX7 8SQ","postcode":"HX7 8SQ"}},{"type":"Feature","geometry":{"type":"Point","coordinates":[-2.0384643380339926,53.74393003152456]},"properties":{"name":"5 TOLLINGTON PLACE MANAGEMENT LIMITED","address":"HIGH BARN LOWER RAWTONSTALL, BLACKSHAW HEAD, HEBDEN BRIDGE, WEST YORKSHIRE, HX7 7JR","postcode":"HX7 7JR"}},{"type":"Feature","geometry":{"type":"Point","coordinates":[-2.017165484689617,53.74174443455318]},"properties":{"name":"A & P PROJECT MANAGEMENT LTD","address":"5 THE MILL, BRUNSWICK STREET, HEBDEN BRIDGE, WEST YORKSHIRE, HX7 6AF","postcode":"HX7 6AF"}},{"type":"Feature","geometry":{"type":"Point","coordinates":[-1.973504995840759,53.729593841005844]},"properties":{"name":"A D PLASTIC SOLUTIONS LIMITED","address":"UNIT 7 MODERNA BUSINESS PARK, MODERNA WAY, MYTHOLMROYD, HEBDEN BRIDGE, WEST YORKSHIRE, HX7 5QQ","postcode":"HX7 5QQ"}},{"type":"Feature","geometry":{"type":"Point","coordinates":[-1.9826487331088496,53.73080963524718]},"properties":{"name":"A G UPHOLSTERY LIMITED","address":"17 BURNLEY ROAD, MYTHOLMROYD, HEBDEN BRIDGE, YORKS, UNITED KINGDOM, HX7 5LH","postcode":"HX7 5LH"}},{"type":"Feature","geometry":{"type":"Point","coordinates":[-2.0126283202781097,53.743908432850795]},"properties":{"name":"A R B CONTRACTORS LIMITED","address":"BURLEES HOUSE, HANGINGROYD LANE, HEBDEN BRIDGE, WEST YORKSHIRE, HX7 7DD","postcode":"HX7 7DD"}},{"type":"Feature","geometry":{"type":"Point","coordinates":[-2.004720016199519,53.744925232126285]},"properties":{"name":"ABACUS ACCESS LIMITED","address":"3 SANDY GATE, HEBDEN BRIDGE, WEST YORKSHIRE, UNITED KINGDOM, HX7 8HZ","postcode":"HX7 8HZ"}},{"type":"Feature","geometry":{"type":"Point","coordinates":[-1.9774712598941437,53.73001879529419]},"properties":{"name":"ABACUS PICTURE FRAMING AND GALLERY LTD","address":"UNIT 6 WHITE LEE, MYTHOLMROYD, HEBDEN BRIDGE, WEST YORKSHIRE, HX7 5AD","postcode":"HX7 5AD"}},{"type":"Feature","geometry":{"type":"Point","coordinates":[-2.01586237323284,53.74170636496542]},"properties":{"name":"ACADEMY OF CLINICAL EXCELLENCE LIMITED","address":"BARCLAYS BANK CHAMBERS, MARKET STREET, HEBDEN BRIDGE, WEST YORKSHIRE, HX7 6AD","postcode":"HX7 6AD"}},{"type":"Feature","geometry":{"type":"Point","coordinates":[-1.9826522580390475,53.73090032713358]},"properties":{"name":"ACCATURA LTD","address":"17 BURNLEY ROAD, MYTHOLMROYD, HEBDEN BRIDGE, UNITED KINGDOM, HX7 5LH","postcode":"HX7 5LH"}},{"type":"Feature","geometry":{"type":"Point","coordinates":[-2.0590011265015224,53.75490360905052]},"properties":{"name":"1000FEETUP LIMITED","address":"1 BROADSTONE COTTAGE, HEBDEN BRIDGE, WEST YORKSHIRE, HX7 7PQ","postcode":"HX7 7PQ"}},{"type":"Feature","geometry":{"type":"Point","coordinates":[-2.013145045896905,53.737864094765314]},"properties":{"name":"10TH FLOOR IT CONSULTING LIMITED","address":"THE OLD PRESBYTERY, 15 PALACE HOUSE ROAD, HEBDEN BRIDGE, WEST YORKSHIRE, HX7 6HW","postcode":"HX7 6HW"}},{"type":"Feature","geometry":{"type":"Point","coordinates":[-2.010345543326454,53.7453117225623]},"properties":{"name":"2 TEMPO LIMITED","address":"18 UNITY STREET, HEBDEN BRIDGE, WEST YORKSHIRE, HX7 8HQ","postcode":"HX7 8HQ"}},{"type":"Feature","geometry":{"type":"Point","coordinates":[-1.9866567214251118,53.72559460685574]},"properties":{"name":"360 PIXIE LIMITED","address":"UNIT 4C TOPLAND COUNTRY BUSINESS PARK, CRAGG VALE, HEBDEN BRIDGE, WEST YORKSHIRE, HX7 5RW","postcode":"HX7 5RW"}},{"type":"Feature","geometry":{"type":"Point","coordinates":[-2.0005011616668753,53.7509493794969]},"properties":{"name":"3MT LIMITED","address":"2 GREEN END, HEBDEN BRIDGE, WEST YORKSHIRE, UNITED KINGDOM, HX7 8SQ","postcode":"HX7 8SQ"}},{"type":"Feature","geometry":{"type":"Point","coordinates":[-2.038431385254378,53.743827726183945]},"properties":{"name":"5 TOLLINGTON PLACE MANAGEMENT LIMITED","address":"HIGH BARN LOWER RAWTONSTALL, BLACKSHAW HEAD, HEBDEN BRIDGE, WEST YORKSHIRE, HX7 7JR","postcode":"HX7 7JR"}},{"type":"Feature","geometry":{"type":"Point","coordinates":[-2.0171144135211394,53.74186773109508]},"properties":{"name":"A & P PROJECT MANAGEMENT LTD","address":"5 THE MILL, BRUNSWICK STREET, HEBDEN BRIDGE, WEST YORKSHIRE, HX7 6AF","postcode":"HX7 6AF"}},{"type":"Feature","geometry":{"type":"Point","coordinates":[-1.9732698485878095,53.72941871206532]},"properties":{"name":"A D PLASTIC SOLUTIONS LIMITED","address":"UNIT 7 MODERNA BUSINESS PARK, MODERNA WAY, MYTHOLMROYD, HEBDEN BRIDGE, WEST YORKSHIRE, HX7 5QQ","postcode":"HX7 5QQ"}},{"type":"Feature","geometry":{"type":"Point","coordinates":[-1.9826754090054735,53.73091029812597]},"properties":{"name":"A G UPHOLSTERY LIMITED","address":"17 BURNLEY ROAD, MYTHOLMROYD, HEBDEN BRIDGE, YORKS, UNITED KINGDOM, HX7 5LH","postcode":"HX7 5LH"}},{"type":"Feature","geometry":{"type":"Point","coordinates":[-2.0124593850009664,53.74380174395565]},"properties":{"name":"A R B CONTRACTORS LIMITED","address":"BURLEES HOUSE, HANGINGROYD LANE, HEBDEN BRIDGE, WEST YORKSHIRE, HX7 7DD","postcode":"HX7 7DD"}},{"type":"Feature","geometry":{"type":"Point","coordinates":[-2.0048559985457093,53.74490989894461]},"properties":{"name":"ABACUS ACCESS LIMITED","address":"3 SANDY GATE, HEBDEN BRIDGE, WEST YORKSHIRE, UNITED KINGDOM, HX7 8HZ","postcode":"HX7 8HZ"}},{"type":"Feature","geometry":{"type":"Point","coordinates":[-1.9773319496651618,53.72981315048879]},"properties":{"name":"ABACUS PICTURE FRAMING AND GALLERY LTD","address":"UNIT 6 WHITE LEE, MYTHOLMROYD, HEBDEN BRIDGE, WEST YORKSHIRE, HX7 5AD","postcode":"HX7 5AD"}},{"type":"Feature","geometry":{"type":"Point","coordinates":[-2.0159655088200146,53.741342274835446]},"properties":{"name":"ACADEMY OF CLINICAL EXCELLENCE LIMITED","address":"BARCLAYS BANK CHAMBERS, MARKET STREET, HEBDEN BRIDGE, WEST YORKSHIRE, HX7 6AD","postcode":"HX7 6AD"}},{"type":"Feature","geometry":{"type":"Point","coordinates":[-1.9826633209003586,53.73087674916354]},"properties":{"name":"ACCATURA LTD","address":"17 BURNLEY ROAD, MYTHOLMROYD, HEBDEN BRIDGE, UNITED KINGDOM, HX7 5LH","postcode":"HX7 5LH"}},{"type":"Feature","geometry":{"type":"Point","coordinates":[-1.999460641490839,53.74045033413105]},"properties":{"name":"ADAPTIVE TRAINING LIMITED","address":"IVY HOUSE, BURLEES LANE, HEBDEN BRIDGE, WEST YORKSHIRE, HX7 8PS","postcode":"HX7 8PS"}},{"type":"Feature","geometry":{"type":"Point","coordinates":[-1.9826936115664837,53.73089322850501]},"properties":{"name":"ADDITIVE TECHNOLOGIES LIMITED","address":"7A BURNLEY ROAD, MYTHOLMROYD, HEBDEN BRIDGE, WEST YORKSHIRE, UNITED KINGDOM, HX7 5LH","postcode":"HX7 5LH"}},{"type":"Feature","geometry":{"type":"Point","coordinates":[-2.0126453171049583,53.74258378447755]},"properties":{"name":"ADMIN FIRST LIMITED","address":"SUITE 8 VALLEY ROAD, HEBDEN BRIDGE, HEBDEN BRIDGE, WEST YORKS, ENGLAND, HX7 7BL","postcode":"HX7 7BL"}},{"type":"Feature","geometry":{"type":"Point","coordinates":[-2.011540038728924,53.74172031359423]},"properties":{"name":"ADMINISTRATIVE CHOICE LIMITED","address":"4 GARDEN STREET, HEBDEN BRIDGE, HEBDEN BRIDGE, ENGLAND, HX7 8AQ","postcode":"HX7 8AQ"}},{"type":"Feature","geometry":{"type":"Point","coordinates":[-1.9834901349391845,53.72681918777851]},"properties":{"name":"ADVERGAMER LIMITED","address":"BANK HOUSE, HALL BANK LANE, HEBDEN BRIDGE, WEST YORKSHIRE, ENGLAND, HX7 5HQ","postcode":"HX7 5HQ"}},{"type":"Feature","geometry":{"type":"Point","coordinates":[-2.011598791960261,53.76498469605073]},"properties":{"name":"ADVOCACYALIGNED LIMITED","address":"PURPRISE FARM, PECKET WELL, HEBDEN BRIDGE, WEST YORKSHIRE, HX7 8RB","postcode":"HX7 8RB"}},{"type":"Feature","geometry":{"type":"Point","coordinates":[-2.015906662548678,53.741346782267755]},"properties":{"name":"AGENCY SIGNS (UK) LTD","address":"BARCLAYS BANK CHAMBERS, MARKET STREET, HEBDEN BRIDGE, WEST YORKSHIRE, HX7 6AD","postcode":"HX7 6AD"}},{"type":"Feature","geometry":{"type":"Point","coordinates":[-2.0211115994105624,53.74946608115177]},"properties":{"name":"AJPOPE SOCIAL WORK LIMITED","address":"2 SWAN FOLD, HEPTONSTALL, HEBDON BRIDGE, ENGLAND, HX7 7NP","postcode":"HX7 7NP"}},{"type":"Feature","geometry":{"type":"Point","coordinates":[-2.0173611213141873,53.74038755395074]},"properties":{"name":"ALAN GARDNER ASSOCIATES LTD","address":"2C BEEHIVE MILLS, HEBBLE END, HEBDEN BRIDGE, WEST YORKSHIRE, ENGLAND, HX7 6HJ","postcode":"HX7 6HJ"}},{"type":"Feature","geometry":{"type":"Point","coordinates":[-2.017280838230133,53.740408912412924]},"properties":{"name":"ALASKA EQUIPMENT LIMITED","address":"UNIT 3A BEEHIVE MILL, HEBBLE END, HEBDEN BRIDGE, WEST YORKSHIRE, ENGLAND, HX7 6HJ","postcode":"HX7 6HJ"}},{"type":"Feature","geometry":{"type":"Point","coordinates":[-2.020775041610547,53.75015445061808]},"properties":{"name":"ALISON GRANT ARCHITECTS LTD","address":"5 NORTHFIELD, HEPTONSTALL, HEBDEN BRIDGE, WEST YORKSHIRE, HX7 7NW","postcode":"HX7 7NW"}},{"type":"Feature","geometry":{"type":"Point","coordinates":[-2.067193333314902,53.744306609753316]},"properties":{"name":"ANDERSON COMPUTER CONSULTANTS LIMITED","address":"6 PENNINE VIEW, BLACKSHAW HEAD, HEBDEN BRIDGE, HX7 7JS","postcode":"HX7 7JS"}},{"type":"Feature","geometry":{"type":"Point","coordinates":[-1.9831319905197653,53.730964040341895]},"properties":{"name":"ANDREW HEPTINSTALL FINANCIAL SERVICES LLP","address":"11 BRIDGE END, HEBDEN BRIDGE, WEST YORKSHIRE, HX7 5DR","postcode":"HX7 5DR"}},{"type":"Feature","geometry":{"type":"Point","coordinates":[-2.0228193434926314,53.74893884373327]},"properties":{"name":"ANDREW P MANNING CONTENT SOLUTIONS LTD","address":"24 CHURCH STREET, HEPTONSTALL, HEBDEN BRIDGE, WEST YORKSHIRE, UNITED KINGDOM, HX7 7NS","postcode":"HX7 7NS"}},{"type":"Feature","geometry":{"type":"Point","coordinates":[-1.9826594020348773,53.72936248905832]},"properties":{"name":"ANSELL CONSTRUCTION LIMITED","address":"7 NEW ROAD, MYTHOLMROYD, HEBDEN BRIDGE, WEST YORKSHIRE, HX7 5DZ","postcode":"HX7 5DZ"}},{"type":"Feature","geometry":{"type":"Point","coordinates":[-1.992542434908482,53.69560200894192]},"properties":{"name":"ANTHA LIMITED","address":"CRAGGS COUNTRY BUSINESS PARK NEW ROAD, CRAGG VALE, HEBDEN BRIDGE, WEST YORKSHIRE, ENGLAND, HX7 5TT","postcode":"HX7 5TT"}},{"type":"Feature","geometry":{"type":"Point","coordinates":[-1.9826693124500492,53.73079550747324]},"properties":{"name":"AP BOLTON BUILDERS & CONTRACTORS LTD","address":"17 BURNLEY ROAD, MYTHOLMROYD, HEBDEN BRIDGE, WEST YORKSHIRE, ENGLAND, HX7 5LH","postcode":"HX7 5LH"}},{"type":"Feature","geometry":{"type":"Point","coordinates":[-2.0110707958017775,53.7401679409201]},"properties":{"name":"AQUA DENTAL CLINIC LIMITED","address":"BARCLAYS BANK CHAMBERS, MARKET STREET, HEBDEN BRIDGE, WEST YORKSHIRE, HX7 8AD","postcode":"HX7 8AD"}},{"type":"Feature","geometry":{"type":"Point","coordinates":[-2.0051761486668838,53.74188798180713]},"properties":{"name":"ARB CONSULTING ASSOCIATES LTD","address":"2 WADSWORTH LANE, HEBDEN BRIDGE, HALIFAX, WEST YORKSHIRE, HX7 8DL","postcode":"HX7 8DL"}},{"type":"Feature","geometry":{"type":"Point","coordinates":[-2.01210426492783,53.75249922827026]},"properties":{"name":"ARC PHYSIOTHERAPY LIMITED","address":"VALHALLA, LEE MILL ROAD, HEBDEN BRIDGE, WEST YORKSHIRE, UNITED KINGDOM, HX7 7AE","postcode":"HX7 7AE"}},{"type":"Feature","geometry":{"type":"Point","coordinates":[-2.0140829896388617,53.74184192649238]},"properties":{"name":"ARCHITECTONIC DESIGN LTD","address":"11-13 OLDGATE, HEBDEN BRIDGE, WEST YORKSHIRE, HX7 6EN","postcode":"HX7 6EN"}},{"type":"Feature","geometry":{"type":"Point","coordinates":[-1.9726597456032449,53.73054351204545]},"properties":{"name":"ARTOME LTD","address":"BRIER HEY HOUSE, BRIER HEY, HEBDEN BRIDGE, WEST YORKSHIRE, HX7 5PF","postcode":"HX7 5PF"}},{"type":"Feature","geometry":{"type":"Point","coordinates":[-2.013049854216465,53.74423961441914]},"properties":{"name":"ARTSMILL LIMITED","address":"ARTSMILL, LINDEN MILL, HEBDEN BRIDGE, WEST YORKSHIRE, HX7 7DP","postcode":"HX7 7DP"}},{"type":"Feature","geometry":{"type":"Point","coordinates":[-1.9857950670277296,53.72890246143527]},"properties":{"name":"ASPIRE PUBLISHING LTD","address":"59 ELPHABOROUGH CLOSE, MYTHOLMROYD, HALIFAX, WEST YORKSHIRE, UNITED KINGDOM, HX7 5JX","postcode":"HX7 5JX"}},{"type":"Feature","geometry":{"type":"Point","coordinates":[-1.9795418196853662,53.73306161059384]},"properties":{"name":"ASQUITH & SONS (MYTHOLMROYD) LIMITED","address":"40 BANKSFIELD CRESCENT, MYTHOLMROYD, HEBDEN BRIDGE, WEST YORKSHIRE, UNITED KINGDOM, HX7 5NG","postcode":"HX7 5NG"}},{"type":"Feature","geometry":{"type":"Point","coordinates":[-2.013724757843267,53.74596000657274]},"properties":{"name":"ASTLEY HOUSE LIMITED","address":"VICTORIA WORKS VICTORIA ROAD, HEBDEN BRIDGE, HALIFAX, WEST YORKSHIRE, HX7 8LN","postcode":"HX7 8LN"}},{"type":"Feature","geometry":{"type":"Point","coordinates":[-2.01592709022591,53.74155036552541]},"properties":{"name":"ATRAD SALES LIMITED","address":"BARCLAYS BANK CHAMBERS, MARKET STREET, HEBDEN BRIDGE, WEST YORKSHIRE, ENGLAND, HX7 6AD","postcode":"HX7 6AD"}},{"type":"Feature","geometry":{"type":"Point","coordinates":[-1.9866104803136104,53.725645626757746]},"properties":{"name":"AUTOMOTIVE MANUFACTURERS RACING ASSOCIATION LIMITED","address":"UNIT 10D TOPLANDS BUSINESS PARK, CRAGG VALE, HEBDEN BRIDGE, WEST YORKSHIRE, HX7 5RW","postcode":"HX7 5RW"}},{"type":"Feature","geometry":{"type":"Point","coordinates":[-2.010655932720403,53.74259670941265]},"properties":{"name":"AVARICE (MANAGEMENT) LIMITED","address":"4 ST JOHNS CLOSE, HEBDEN BRIDGE, WEST YORKSHIRE, HX7 8DP","postcode":"HX7 8DP"}},{"type":"Feature","geometry":{"type":"Point","coordinates":[-2.017166230199517,53.74135008684955]},"properties":{"name":"AXARUS LIMITED","address":"BARCLAYS BANK CHAMBERS, MARKET STREET, HEBDEN BRIDGE, WEST YORKSHIRE, HX7 6AA","postcode":"HX7 6AA"}},{"type":"Feature","geometry":{"type":"Point","coordinates":[-1.9991410778699443,53.73681145508323]},"properties":{"name":"AXIS NORTH LIMITED","address":"3 FALLING ROYD, HEBDEN BRIDGE, ENGLAND, HX7 8NT","postcode":"HX7 8NT"}},{"type":"Feature","geometry":{"type":"Point","coordinates":[-1.9911434604447489,53.730314165726206]},"properties":{"name":"BABBLING BROOK NETWORK LTD","address":"5 NEST ESTATE, HEBDEN BRIDGE, WEST YORKSHIRE, HX7 5BH","postcode":"HX7 5BH"}},{"type":"Feature","geometry":{"type":"Point","coordinates":[-2.0131345149370667,53.74163592612932]},"properties":{"name":"BAMBOO (H.B.) LIMITED","address":"16A BRIDGE GATE, HEBDEN BRIDGE, WEST YORKSHIRE, HX7 8EX","postcode":"HX7 8EX"}},{"type":"Feature","geometry":{"type":"Point","coordinates":[-2.016042642105444,53.74171990512401]},"properties":{"name":"BARSERVICE CHC LIMITED","address":"BARCLAYS BANK CHAMBERS, MARKET STREET, HEBDEN BRIDGE, WEST YORKSHIRE, HX7 6AD","postcode":"HX7 6AD"}},{"type":"Feature","geometry":{"type":"Point","coordinates":[-2.0157710433077405,53.741633868217285]},"properties":{"name":"BDS LABORATORY LLP","address":"BARCLAYS BANK CHAMBERS, MARKET STREET, HEBDEN BRIDGE, WEST YORKSHIRE, HX7 6AD","postcode":"HX7 6AD"}},{"type":"Feature","geometry":{"type":"Point","coordinates":[-2.0159190074982596,53.74170047200381]},"properties":{"name":"BDS LABS LIMITED","address":"BARCLAYS BANK CHAMBERS, MARKET STREET, HEBDEN BRIDGE, WEST YORKSHIRE, ENGLAND, HX7 6AD","postcode":"HX7 6AD"}},{"type":"Feature","geometry":{"type":"Point","coordinates":[-2.003122552168309,53.75162837682045]},"properties":{"name":"BEARD ENTERPRISES LIMITED","address":"OLD TOWN MILL, OLD TOWN, HEBDEN BRIDGE, W YORKS, HX7 8SW","postcode":"HX7 8SW"}},{"type":"Feature","geometry":{"type":"Point","coordinates":[-1.9831524887684213,53.730724868684405]},"properties":{"name":"BENCHMARK TRAVEL LIMITED","address":"7 - 9, BRIDGE END MYTHOLMROYD, HEBDEN BRIDGE, WEST YORKSHIRE, HX7 5DR","postcode":"HX7 5DR"}},{"type":"Feature","geometry":{"type":"Point","coordinates":[-1.982712400472483,53.73092787618731]},"properties":{"name":"BG COURIERS LIMITED","address":"C/O LORD & CO ACCOUNTANTS 17 BURNLEY ROAD, MYTHOLMROYD, HEBDEN BRIDGE, WEST YORKSHIRE, UNITED KINGDOM, HX7 5LH","postcode":"HX7 5LH"}},{"type":"Feature","geometry":{"type":"Point","coordinates":[-2.0130046487373656,53.74657448869794]},"properties":{"name":"BID 4 YOU LTD","address":"18 SPRING GROVE, HEBDEN BRIDGE, WEST YORKSHIRE, HX7 8LR","postcode":"HX7 8LR"}},{"type":"Feature","geometry":{"type":"Point","coordinates":[-2.0458407702366834,53.732850180583426]},"properties":{"name":"BIG PETE LIMITED","address":"THE MOTOR SPORTS CENTRE, SANDBED, HEBDEN BRIDGE, WEST YORKSHIRE, HX7 6PT","postcode":"HX7 6PT"}},{"type":"Feature","geometry":{"type":"Point","coordinates":[-2.0126627129897456,53.743806755849526]},"properties":{"name":"BIG RED CIRCLE LTD","address":"BURLEES HOUSE, HANGINGROYD LANE, HEBDEN BRIDGE, WEST YORKSHIRE, HX7 7DD","postcode":"HX7 7DD"}},{"type":"Feature","geometry":{"type":"Point","coordinates":[-1.9897747323375,53.71949543124636]},"properties":{"name":"BINGHAM & BROCK CHILDCARE LLP","address":"THE ARK DEAN HEY FARM, MYTHOLMROYD, HEBDEN BRIDGE, WEST YORKSHIRE, HX7 5RU","postcode":"HX7 5RU"}},{"type":"Feature","geometry":{"type":"Point","coordinates":[-2.0159117115640384,53.74149436583425]},"properties":{"name":"BIRCH PLACE LIMITED","address":"BARCLAYS BANK CHAMBERS, MARKET STREET, HEBDEN BRIDGE, WEST YORKSHIRE, ENGLAND, HX7 6AD","postcode":"HX7 6AD"}},{"type":"Feature","geometry":{"type":"Point","coordinates":[-2.008818362897633,53.74233736142471]},"properties":{"name":"BIRCHCLIFFE CONSULTANCY LIMITED","address":"WOODSIDE, BIRCHCLIFFE ROAD, HEBDEN BRIDGE, WEST YORKSHIRE, HX7 8DQ","postcode":"HX7 8DQ"}},{"type":"Feature","geometry":{"type":"Point","coordinates":[-2.0094514605351557,53.7445077153567]},"properties":{"name":"BLACKBARK LLP","address":"6-8 NUTCLOUGH, KEIGHLEY ROAD, HEBDEN BRIDGE, WEST YORKSHIRE, HX7 8HA","postcode":"HX7 8HA"}},{"type":"Feature","geometry":{"type":"Point","coordinates":[-2.0160070988022993,53.74134300927804]},"properties":{"name":"BLACKSHAW ROYD EQUESTRIAN LIMITED","address":"BARCLAYS BANK CHAMBERS, MARKET STREET, HEBDEN BRIDGE, WEST YORKSHIRE, ENGLAND, HX7 6AD","postcode":"HX7 6AD"}},{"type":"Feature","geometry":{"type":"Point","coordinates":[-1.973469879429726,53.7294617410925]},"properties":{"name":"BLAH BLAH BLAH UK LIMITED","address":"UNIT 17 MODERNA BUSINESS PARK, MYTHOLMROYD, WESY YORKSHIRE, HX7 5QQ","postcode":"HX7 5QQ"}},{"type":"Feature","geometry":{"type":"Point","coordinates":[-2.015907182444513,53.741578745924684]},"properties":{"name":"BLEA LTD","address":"C/O CRESSWELLS, BARCLAYS BANK CHAMBERS, MARKET STREET, HEBDEN BRIDGE, WEST YORKSHIRE, ENGLAND, HX7 6AD","postcode":"HX7 6AD"}},{"type":"Feature","geometry":{"type":"Point","coordinates":[-2.0158866937270172,53.741556697701]},"properties":{"name":"BLUE VESPA","address":"BARCLAYS BANK CHAMBERS, MARKET STREET, HEBDEN BRIDGE, HX7 6AD","postcode":"HX7 6AD"}},{"type":"Feature","geometry":{"type":"Point","coordinates":[-1.9905281910440014,53.75148071864379]},"properties":{"name":"BLUEFIN TRADING LIMITED","address":"KEELHAM FARM, WADSWORTH, HEBDEN BRIDGE, WEST YORKSHIRE, HX7 8TG","postcode":"HX7 8TG"}},{"type":"Feature","geometry":{"type":"Point","coordinates":[-2.01319915718622,53.74390382616795]},"properties":{"name":"BLUEMOOSE BOOKS LTD","address":"25 SACKVILLE STREET, HEBDEN BRIDGE, WEST YORKSHIRE, HX7 7DJ","postcode":"HX7 7DJ"}},{"type":"Feature","geometry":{"type":"Point","coordinates":[-2.0173414953241013,53.740537050969444]},"properties":{"name":"BME LEARNING NETWORK (WEST YORKSHIRE)","address":"BEEHIVE MILLS, HEBBLE END, HEBDEN BRIDGE, WEST YORKSHIRE, HX7 6HJ","postcode":"HX7 6HJ"}},{"type":"Feature","geometry":{"type":"Point","coordinates":[-1.9775835072647199,53.7300072967333]},"properties":{"name":"BOB WILD GRASS MACHINERY LIMITED","address":"UNITS 7 & 8 WHITE LEE, MYTHOLMROYD, HEBDEN BRIDGE, WEST YORKS, HX7 5AD","postcode":"HX7 5AD"}},{"type":"Feature","geometry":{"type":"Point","coordinates":[-2.005368853538096,53.7632265205064]},"properties":{"name":"BOGACKI DESIGN LTD","address":"12 PECKET WELL MILL, HEBDEN BRIDGE, WEST YORKSHIRE, HX7 8QY","postcode":"HX7 8QY"}},{"type":"Feature","geometry":{"type":"Point","coordinates":[-2.011523696311839,53.74173555372389]},"properties":{"name":"BORILLA LIMITED","address":"4 GARDEN STREET, HEBDEN BRIDGE, WEST YORKSHIRE, ENGLAND, HX7 8AQ","postcode":"HX7 8AQ"}},{"type":"Feature","geometry":{"type":"Point","coordinates":[-2.015908258513139,53.74148907503134]},"properties":{"name":"BOUTIQUE WHITENING LIMITED","address":"BARCLAYS BANK CHAMBERS, MARKET STREET, HEBDEN BRIDGE, WEST YORKSHIRE, ENGLAND, HX7 6AD","postcode":"HX7 6AD"}},{"type":"Feature","geometry":{"type":"Point","coordinates":[-2.0199698680362785,53.741528523681836]},"properties":{"name":"BOWDEN2 LTD","address":"95 BRIDGE LANES, HEBDEN BRIDGE, WEST YORKSHIRE, HX7 6AT","postcode":"HX7 6AT"}},{"type":"Feature","geometry":{"type":"Point","coordinates":[-1.9895898255635096,53.719535480390306]},"properties":{"name":"BRANDED CONSUMABLE GOODS (DIRECT) LTD.","address":"UNIT 2A TOP LAND COUNTRY, BUSINESS PK, CRAGG ROAD, MYTHOLMROYD, HEBDEN BRIDGE, WESTYORKSHIRE, HX7 5RU","postcode":"HX7 5RU"}},{"type":"Feature","geometry":{"type":"Point","coordinates":[-2.028722942240231,53.74377251029063]},"properties":{"name":"BRIC IO LTD","address":"9 GLEN VIEW, HEBDEN BRIDGE, WEST YORKSHIRE, UNITED KINGDOM, HX7 6DB","postcode":"HX7 6DB"}},{"type":"Feature","geometry":{"type":"Point","coordinates":[-2.028771475287537,53.74373201507667]},"properties":{"name":"BRIC IO SERVICES LLP","address":"9 GLEN VIEW, HEBDEN BRIDGE, WEST YORKSHIRE, UNITED KINGDOM, HX7 6DB","postcode":"HX7 6DB"}},{"type":"Feature","geometry":{"type":"Point","coordinates":[-2.0049726535634704,53.744934951980866]},"properties":{"name":"BRIDGE ECONOMICS LIMITED","address":"4 SANDY GATE, HEBDEN BRIDGE, WEST YORKSHIRE, HX7 8HZ","postcode":"HX7 8HZ"}},{"type":"Feature","geometry":{"type":"Point","coordinates":[-2.017313035257217,53.740491118694074]},"properties":{"name":"BRIDGE RECTIFIER LTD","address":"UNIT 1B, HEBBLE END WORKS, HEBDEN BRIDGE, WEST YORKSHIRE, ENGLAND, HX7 6HJ","postcode":"HX7 6HJ"}},{"type":"Feature","geometry":{"type":"Point","coordinates":[-2.0126788389553845,53.74261880227664]},"properties":{"name":"BRIGANTIA FUNDING LLP","address":"SUITE ONE HAWKSTONE HOUSE, VALLEY ROAD, HEBDEN BRIDGE, WEST YORKSHIRE, HX7 7BL","postcode":"HX7 7BL"}},{"type":"Feature","geometry":{"type":"Point","coordinates":[-2.0121419687464717,53.742276443951724]},"properties":{"name":"BRINGTONHILL PROPERTIES LIMITED","address":"4 - 6 ST GEORGES SQUARE, HEBDEN BRIDGE, WEST YORKSHIRE, ENGLAND, HX7 8ET","postcode":"HX7 8ET"}},{"type":"Feature","geometry":{"type":"Point","coordinates":[-2.012747864835779,53.743617437801575]},"properties":{"name":"BROOKLYN STUDIO","address":"UNIT 3 38, HANGINGROYD LANE, HEBDEN BRIDGE, WEST YORKSHIRE, HX7 7DD","postcode":"HX7 7DD"}},{"type":"Feature","geometry":{"type":"Point","coordinates":[-2.036464131575656,53.73666509799102]},"properties":{"name":"BROTHERS DAY FILMS LTD","address":"3 INGLE DENE, HEBDEN BRIDGE, HX7 6PQ","postcode":"HX7 6PQ"}},{"type":"Feature","geometry":{"type":"Point","coordinates":[-1.9997034792229775,53.74040931153949]},"properties":{"name":"BTS FIRST AID TRAINING & SERVICES LTD","address":"GREAT BURLEES FARM, BURLEES LANE, HEBDEN BRIDGE, WEST YORKSHIRE, ENGLAND, HX7 8PS","postcode":"HX7 8PS"}},{"type":"Feature","geometry":{"type":"Point","coordinates":[-2.082559814310592,53.74767769879294]},"properties":{"name":"BULLDOZER MACHINERY LIMITED","address":"1 MOORCOOK ROAD, MOORCOOK ROAD, HEBDEN BRIDGE, WEST YORKSHIRE, ENGLAND, HX7 7JA","postcode":"HX7 7JA"}},{"type":"Feature","geometry":{"type":"Point","coordinates":[-1.9855113361564087,53.73203122886331]},"properties":{"name":"BURNLEY ROAD ACADEMY","address":"BURNLEY ROAD ACADEMY BURNLEY ROAD, MYTHOLMROYD, HEBDEN BRIDGE, WEST YORKSHIRE, ENGLAND, HX7 5DE","postcode":"HX7 5DE"}},{"type":"Feature","geometry":{"type":"Point","coordinates":[-2.0131308881016454,53.74264955916497]},"properties":{"name":"BURNS COLLETT PROJECTS LIMITED","address":"THE TOWN HALL, ST GEORGE'S STREET, HEBDEN BRIDGE, WEST YORKSHIRE, HX7 7BY","postcode":"HX7 7BY"}},{"type":"Feature","geometry":{"type":"Point","coordinates":[-2.010350250713802,53.741609078319826]},"properties":{"name":"BUSINESS TECHNOLOGIST LIMITED","address":"APARTMENT 3 ZION BAPTIST CHAPEL, OSBORNE STREET, HEBDEN BRIDGE, WEST YORKSHIRE, ENGLAND, HX7 8DT","postcode":"HX7 8DT"}},{"type":"Feature","geometry":{"type":"Point","coordinates":[-2.0144118532062936,53.74316053115552]},"properties":{"name":"BUTTRESS SYSTEMS LTD.","address":"51 ROYD TERRACE, HEBDEN BRIDGE, WEST YORKSHIRE, UNITED KINGDOM, HX7 7BT","postcode":"HX7 7BT"}},{"type":"Feature","geometry":{"type":"Point","coordinates":[-2.012039720619461,53.74048712378161]},"properties":{"name":"BW FREEHOLD LTD","address":"9 BUTLERS WHARF, HEBDEN BRIDGE, WEST YORKSHIRE, HX7 8AF","postcode":"HX7 8AF"}},{"type":"Feature","geometry":{"type":"Point","coordinates":[-1.9774685480959946,53.730007284586684]},"properties":{"name":"BW INDUSTRIAL EQUIPMENT LIMITED","address":"UNIT 7-8, WHITE LEE UNIT 7-8, MYTHOLMROYD, HEBDEN BRIDGE, WEST YORKSHIRE, ENGLAND, HX7 5AD","postcode":"HX7 5AD"}},{"type":"Feature","geometry":{"type":"Point","coordinates":[-2.0159739978064084,53.74136912741672]},"properties":{"name":"C & C IT LIMITED","address":"BARCLAYS BANK CHAMBERS, MARKET STREET, HEBDEN BRIDGE, WEST YORKSHIRE, HX7 6AD","postcode":"HX7 6AD"}},{"type":"Feature","geometry":{"type":"Point","coordinates":[-2.0160192047633343,53.74141866114821]},"properties":{"name":"C R BOOKKEEPING LIMITED","address":"BARCLAYS BANK CHAMBERS, MARKET STREET, HEBDEN BRIDGE, WEST YORKSHIRE, ENGLAND, HX7 6AD","postcode":"HX7 6AD"}},{"type":"Feature","geometry":{"type":"Point","coordinates":[-2.0311186201621263,53.739874583645836]},"properties":{"name":"C.N. TRADING LIMITED","address":"CALDERSIDE NURSERIES, OAKVILLE ROAD, HEBDEN BRIDGE, WEST YORKSHIRE, HX7 6NG","postcode":"HX7 6NG"}},{"type":"Feature","geometry":{"type":"Point","coordinates":[-2.0311596013806943,53.73986236844641]},"properties":{"name":"C.N. TRANSPORT LIMITED","address":"CALDERSIDE NURSERIES, CALDERSIDE, HEBDEN BRIDGE, WEST YORKSHIRE, HX7 6NG","postcode":"HX7 6NG"}},{"type":"Feature","geometry":{"type":"Point","coordinates":[-2.048518274804571,53.733798910928186]},"properties":{"name":"C.V.S.(HEBDEN BRIDGE)LIMITED","address":"ORCHARD COTTAGE, UNDERBANK, HEBDEN BRIDGE, WEST YORKSHIRE, HX7 6PR","postcode":"HX7 6PR"}},{"type":"Feature","geometry":{"type":"Point","coordinates":[-2.0094309840970097,53.74144883753583]},"properties":{"name":"CAFE SARDINIA LTD","address":"BEACHMOUNT MARLBOROUGH ROAD, HEBDEN BRIDGE, HALIFAX, UNITED KINGDOM, HX7 8BW","postcode":"HX7 8BW"}},{"type":"Feature","geometry":{"type":"Point","coordinates":[-1.975932209942892,53.730224528734595]},"properties":{"name":"CALDENE BUSINESS PARK LIMITED","address":"BURNLEY ROAD, MYTHOLMROYD, HEBDEN BRIDGE, WEST YORKSHIRE, HX7 5QJ","postcode":"HX7 5QJ"}},{"type":"Feature","geometry":{"type":"Point","coordinates":[-1.9949075977943993,53.734060789195944]},"properties":{"name":"CALDER BROOK GARAGE LIMITED","address":"CALDER BROOK GARAGE, HOLME END, HEBDEN BRIDGE, WEST YORKSHIRE, HX7 8NX","postcode":"HX7 8NX"}},{"type":"Feature","geometry":{"type":"Point","coordinates":[-2.009071788468931,53.739893231789445]},"properties":{"name":"CALDER CIVIC TRUST LIMITED","address":"TAP INSTRUMENTS LTD MACHPELAH WORKS, BURNLEY ROAD, HEBDEN BRIDGE, WEST YORKSHIRE, HX7 8AU","postcode":"HX7 8AU"}},{"type":"Feature","geometry":{"type":"Point","coordinates":[-2.01697938728388,53.7414703902123]},"properties":{"name":"CALDER COMPUTER SERVICES LIMITED","address":"BARCLAYS BANK CHAMBERS, MARKET STREET, HEBDEN BRIDGE, WEST YORKSHIRE, HX7 6AA","postcode":"HX7 6AA"}},{"type":"Feature","geometry":{"type":"Point","coordinates":[-1.9870930918576755,53.7311490975504]},"properties":{"name":"CALDER FOOD HUB COMMUNITY INTEREST COMPANY","address":"6 THE DRIVE, HEBDEN BRIDGE, WEST YORKSHIRE, HX7 5BN","postcode":"HX7 5BN"}},{"type":"Feature","geometry":{"type":"Point","coordinates":[-1.9897640562794356,53.71947948857676]},"properties":{"name":"CALDER RECORDINGS LIMITED","address":"UNIT 9D TOPLAND COUNTRY BUSINESS, PARK MYTHOLMROYD, HALIFAX, WEST YORKSHIRE, HX7 5RU","postcode":"HX7 5RU"}},{"type":"Feature","geometry":{"type":"Point","coordinates":[-2.0089419565615088,53.74368551425197]},"properties":{"name":"CALDER VALLEY BUSINESS SERVICES LTD.","address":"BIRCHCLIFFE CENTRE, CHAPEL, AVENUE, HEBDEN BRIDGE, WEST YORKSHIRE, HX7 8DG","postcode":"HX7 8DG"}},{"type":"Feature","geometry":{"type":"Point","coordinates":[-2.0090513347304837,53.74213287011139]},"properties":{"name":"CALDER VALLEY COMMERCIAL SERVICES LIMITED","address":"10 BLENHEIM STREET, HEBDEN BRIDGE, WEST YORKSHIRE, HX7 8BU","postcode":"HX7 8BU"}},{"type":"Feature","geometry":{"type":"Point","coordinates":[-1.9876632301216015,53.731178336051414]},"properties":{"name":"CALDER VALLEY PLUMBING & HEATING LIMITED","address":"36 ERRINGDEN ROAD, HEBDEN BRIDGE, WEST YORKSHIRE, HX7 5AR","postcode":"HX7 5AR"}},{"type":"Feature","geometry":{"type":"Point","coordinates":[-1.9865533735016963,53.72932033324961]},"properties":{"name":"CALDER VALLEY SEARCH AND RESCUE TEAM","address":"THE RESCUE POST, THRUSH HILL ROAD, HEBDEN BRIDGE, WEST YORKSHIRE, HX7 5AQ","postcode":"HX7 5AQ"}},{"type":"Feature","geometry":{"type":"Point","coordinates":[-2.0106774965530265,53.76664399927413]},"properties":{"name":"CALDER VALLEY STEINER EDUCATION LTD.","address":"11 DUCK HILL, PECKET WELL, HEBDEN BRIDGE, WEST YORKSHIRE, HX7 8RD","postcode":"HX7 8RD"}},{"type":"Feature","geometry":{"type":"Point","coordinates":[-1.981430696127414,53.727721226479886]},"properties":{"name":"CALDER WEAVING COMPANY LIMITED","address":"SCOUT ROAD, MYTHOLMROYD, HEBDEN BRIDGE, WEST YORKSHIRE, HX7 5HZ","postcode":"HX7 5HZ"}},{"type":"Feature","geometry":{"type":"Point","coordinates":[-2.0311562362714968,53.73989621623858]},"properties":{"name":"CALDERDALE SELF STORAGE LIMITED","address":"CALDERSIDE NURSERIES, OAKVILLE ROAD, HEBDEN BRIDGE, WEST YORKSHIRE, HX7 6NG","postcode":"HX7 6NG"}},{"type":"Feature","geometry":{"type":"Point","coordinates":[-2.008848544760951,53.743707701347105]},"properties":{"name":"CALDERDALE SUSTAINABILITY FORUM LIMITED","address":"21 CHAPEL AVENUE, HEBDEN BRIDGE, WEST YORKSHIRE, HX7 8DG","postcode":"HX7 8DG"}},{"type":"Feature","geometry":{"type":"Point","coordinates":[-2.010186734490262,53.74452267772601]},"properties":{"name":"CALREC AUDIO LIMITED","address":"NUTCLOUGH MILL ., VALLEY ROAD, HEBDEN BRIDGE, WEST YORKSHIRE, HX7 8EZ","postcode":"HX7 8EZ"}},{"type":"Feature","geometry":{"type":"Point","coordinates":[-1.9918341713767933,53.73264009788481]},"properties":{"name":"CANCAN PRODUCTIONS LIMITED","address":"NEWFIELD LINDEN ROAD, MYTHOLMROYD, HEBDEN BRIDGE, HX7 5AN","postcode":"HX7 5AN"}},{"type":"Feature","geometry":{"type":"Point","coordinates":[-1.9978394441556824,53.749231314826055]},"properties":{"name":"CANSQUARED LIMITED","address":"24 OLD MILL RIDGE, WADSWORTH, HEBDEN BRIDGE, WEST YORKSHIRE, ENGLAND, HX7 8RT","postcode":"HX7 8RT"}},{"type":"Feature","geometry":{"type":"Point","coordinates":[-1.9827044936708444,53.73077837396613]},"properties":{"name":"CAPABLE PEOPLE LIMITED","address":"17 BURNLEY ROAD, MYTHOLMROYD, HEBDEN BRIDGE, WEST YORKSHIRE, HX7 5LH","postcode":"HX7 5LH"}},{"type":"Feature","geometry":{"type":"Point","coordinates":[-2.0130473100010993,53.75001903539828]},"properties":{"name":"CAPITAL THINKING LTD","address":"BROOK LEIGH, LEE MILL ROAD, HEBDEN BRIDGE, WEST YORKSHIRE, ENGLAND, HX7 7AB","postcode":"HX7 7AB"}},{"type":"Feature","geometry":{"type":"Point","coordinates":[-1.9924617468841193,53.69571128956956]},"properties":{"name":"CARBON CREDIT OFFSETTING LTD","address":"NO.1 CRAGGS COUNTRY BUSINESS PARK, NEW ROAD CRAGG VALE, HEBDEN BRIDGE, WEST YORKSHIRE, UNITED KINGDOM, HX7 5TT","postcode":"HX7 5TT"}},{"type":"Feature","geometry":{"type":"Point","coordinates":[-1.9826092465387253,53.730952894012106]},"properties":{"name":"CARGO LITE LTD","address":"17 BURNLEY ROAD, MYTHOLMROYD, HEBDEN BRIDGE, WEST YORKSHIRE, UNITED KINGDOM, HX7 5LH","postcode":"HX7 5LH"}},{"type":"Feature","geometry":{"type":"Point","coordinates":[-2.0159182781852225,53.74155694392238]},"properties":{"name":"CAROLYN BOWERS LIMITED","address":"BARCLAYS BANK CHAMBERS, MARKET STREET, HEBDEN BRIDGE, WEST YORKSHIRE, HX7 6AD","postcode":"HX7 6AD"}},{"type":"Feature","geometry":{"type":"Point","coordinates":[-1.9827511484891955,53.73086466675256]},"properties":{"name":"CARPENTRY JOINERY SERVICES LTD","address":"17 BURNLEY ROAD, MYTHOLMROYD, HEBDEN BRIDGE, WEST YORKSHIRE, UNITED KINGDOM, HX7 5LH","postcode":"HX7 5LH"}},{"type":"Feature","geometry":{"type":"Point","coordinates":[-2.0124703592876028,53.74279225721452]},"properties":{"name":"CASSIOPEIA LIMITED","address":"SUITE 1 HAWKSTONE HOUSE, VALLEY ROAD, HEBDEN BRIDGE, HX7 7BL","postcode":"HX7 7BL"}},{"type":"Feature","geometry":{"type":"Point","coordinates":[-1.9908696211494519,53.72898564792208]},"properties":{"name":"CATHY'S SOCIAL CARE LIMITED","address":"3 THROSTLE NEST, MYTHOLMROYD, HEBDEN BRIDGE, WEST YORKSHIRE, UNITED KINGDOM, HX7 5BG","postcode":"HX7 5BG"}},{"type":"Feature","geometry":{"type":"Point","coordinates":[-2.0144800719418035,53.74463103729533]},"properties":{"name":"CAUSEWAY ASSOCIATES LTD","address":"4 MAYFIELD ROAD, HEBDEN BRIDGE, HALIFAX, WEST YORKSHIRE, UNITED KINGDOM, HX7 7DT","postcode":"HX7 7DT"}},{"type":"Feature","geometry":{"type":"Point","coordinates":[-2.0169192228215533,53.74148368070582]},"properties":{"name":"CBC OUTSOURCING LLP","address":"12 MARKET STREET, HEBDEN BRIDGE, WEST YORKSHIRE, HX7 6AA","postcode":"HX7 6AA"}},{"type":"Feature","geometry":{"type":"Point","coordinates":[-2.0170825609102456,53.741490744365755]},"properties":{"name":"CDZ LIMITED","address":"BARCLAYS BANK CHAMBERS, MARKET STREET, HEBDEN BRIDGE, WEST YORKSHIRE, HX7 6AA","postcode":"HX7 6AA"}},{"type":"Feature","geometry":{"type":"Point","coordinates":[-1.986687130870785,53.725899057170096]},"properties":{"name":"CENTRE STAGE PERCUSSION LIMITED","address":"UNIT 11B THORNBER COUNTY BUSINESS PARK, CRAGG ROAD, MYTHOLMROYD, WEST YORKSHIRE, UNITED KINGDOM, HX7 5RW","postcode":"HX7 5RW"}},{"type":"Feature","geometry":{"type":"Point","coordinates":[-2.016711315005773,53.74141943122201]},"properties":{"name":"CHELTERMILL LIMITED","address":"BARCLAYS BANK CHAMBERS, HEBDEN BRIDGE, WEST YORKSHIRE, HX7 6AA","postcode":"HX7 6AA"}},{"type":"Feature","geometry":{"type":"Point","coordinates":[-2.0158163592131095,53.74165873470196]},"properties":{"name":"CHIEF DIGITAL LIMITED","address":"BARCLAYS BANK CHAMBERS, MARKET STREET, HEBDEN BRIDGE, WEST YORKSHIRE, ENGLAND, HX7 6AD","postcode":"HX7 6AD"}},{"type":"Feature","geometry":{"type":"Point","coordinates":[-2.017485242943745,53.74254740475002]},"properties":{"name":"CLAIRE DONNELLY LIMITED","address":"18 ALBION TERRACE, HEPTONSTALL ROAD, HEBDEN BRIDGE, WEST YORKSHIRE, HX7 6BE","postcode":"HX7 6BE"}},{"type":"Feature","geometry":{"type":"Point","coordinates":[-2.0493858454141693,53.73775529507711]},"properties":{"name":"CLARUS LIVING LIMITED","address":"4-5 WINTERS COTTAGES, BLACKSHAW HEAD, HEBDEN BRIDGE, WEST YORKSHIRE, UNITED KINGDOM, HX7 7JU","postcode":"HX7 7JU"}},{"type":"Feature","geometry":{"type":"Point","coordinates":[-2.049320613661927,53.737498452594785]},"properties":{"name":"CLARUS PROPERTY INVESTMENTS LIMITED","address":"4-5 WINTERS COTTAGES, BLACKSHAW HEAD, HEBDEN BRIDGE, WEST YORKSHIRE, HX7 7JU","postcode":"HX7 7JU"}},{"type":"Feature","geometry":{"type":"Point","coordinates":[-2.012984939569871,53.7437883875156]},"properties":{"name":"CLEARMOVE LTD","address":"BURLEES HOUSE, HANGINGROYD LANE, HEBDEN BRIDGE, WEST YORKSHIRE, HX7 7DD","postcode":"HX7 7DD"}},{"type":"Feature","geometry":{"type":"Point","coordinates":[-1.9866468366823564,53.72545635471354]},"properties":{"name":"CLEARWAY ESTATE AGENTS LIMITED","address":"UNIT 10D TOPLANDS BUSINESS PARK, CRAGG VALE, HEBDEN BRIDGE, WEST YORKSHIRE, ENGLAND, HX7 5RW","postcode":"HX7 5RW"}},{"type":"Feature","geometry":{"type":"Point","coordinates":[-1.9799201843577925,53.732002192264126]},"properties":{"name":"CLOGS UK LIMITED","address":"UNIT 10 MOUNT PLEASANT MILLS, MIDGLEY ROAD, MYTHOLMROYD, WEST YORKS, HX7 5LR","postcode":"HX7 5LR"}},{"type":"Feature","geometry":{"type":"Point","coordinates":[-1.9870662798785756,53.704396782515296]},"properties":{"name":"CLOUD RELEVANCE LTD","address":"PLODWELL FARM, CRAGG VALE, HEBDEN BRIDGE, WEST YORKSHIRE, HX7 5TU","postcode":"HX7 5TU"}},{"type":"Feature","geometry":{"type":"Point","coordinates":[-1.9889826827103583,53.72350513109223]},"properties":{"name":"CM DIESELS LTD","address":"99 CRAGG ROAD, HEBDEN BRIDGE, WEST YORKSHIRE, UNITED KINGDOM, HX7 5FB","postcode":"HX7 5FB"}},{"type":"Feature","geometry":{"type":"Point","coordinates":[-2.0311634092819184,53.73964479033364]},"properties":{"name":"CN PROPERTY LLP","address":"CALDERSIDE NURSERIES, OAKVILLE ROAD, HEBDEN BRIDGE, WEST YORKSHIRE, HX7 6NG","postcode":"HX7 6NG"}},{"type":"Feature","geometry":{"type":"Point","coordinates":[-2.020775790697592,53.75016607373122]},"properties":{"name":"CO-OP CULTURE","address":"1 NORTHFIELD, HEBDEN BRIDGE, WEST YORKSHIRE, HX7 7NW","postcode":"HX7 7NW"}},{"type":"Feature","geometry":{"type":"Point","coordinates":[-2.011611981962277,53.764945869112]},"properties":{"name":"CODELOGIC LIMITED","address":"LOWER CRIMSWORTH BARN, PECKET, WELL, HEBDEN BRIDGE, WEST YORKSHIRE, HX7 8RB","postcode":"HX7 8RB"}},{"type":"Feature","geometry":{"type":"Point","coordinates":[-2.0131336440591787,53.74171577961088]},"properties":{"name":"COFFEE CALI LIMITED","address":"19 BRIDGEGATE, HEBDEN BRIDGE, WEST YORKSHIRE, HX7 8EX","postcode":"HX7 8EX"}},{"type":"Feature","geometry":{"type":"Point","coordinates":[-2.0625796776499725,53.74909564526379]},"properties":{"name":"COLDEN INTERIMS LIMITED","address":"SYCAMORE HOUSE 1 NEW SHAW LANE, BLACKSHAW HEAD, HEBDEN BRIDGE, WEST YORKSHIRE, HX7 7HZ","postcode":"HX7 7HZ"}},{"type":"Feature","geometry":{"type":"Point","coordinates":[-1.977345902195072,53.727138381160515]},"properties":{"name":"COLOUR (YORKSHIRE) LTD","address":"16 ALBERT STREET, HEBDEN BRIDGE, WEST YORKSHIRE, HX7 5JR","postcode":"HX7 5JR"}},{"type":"Feature","geometry":{"type":"Point","coordinates":[-1.9735754572289925,53.72950801667411]},"properties":{"name":"COMMS PROVIDER LLP","address":"THE CONTINUUM, MODERNA BUSINESS PARK, MYTHOLMROYD, WEST YORKSHIRE, HX7 5QQ","postcode":"HX7 5QQ"}},{"type":"Feature","geometry":{"type":"Point","coordinates":[-2.024728872333577,53.740042792041294]},"properties":{"name":"COMPULINK SOLUTIONS LIMITED","address":"9 STUBBING BRINK, HEBDEN BRIDGE, WEST YORKSHIRE, HX7 6LR","postcode":"HX7 6LR"}},{"type":"Feature","geometry":{"type":"Point","coordinates":[-1.9826975934457345,53.73064424826512]},"properties":{"name":"CONCRETE MORTGAGE SOLUTIONS LTD","address":"17 BURNLEY ROAD, MYTHOLMROYD, HEBDEN BRIDGE, WEST YORKSHIRE, UNITED KINGDOM, HX7 5LH","postcode":"HX7 5LH"}},{"type":"Feature","geometry":{"type":"Point","coordinates":[-1.9898095907430458,53.719455572961046]},"properties":{"name":"CONE RECORDS LIMITED","address":"UNIT 9D TOP LAND COUNTRY, BUSINESS PARK CRAGG ROAD, MYTHOLMROYD NR HEBDEN BRIDGE, WEST YORKSHIRE, HX7 5RU","postcode":"HX7 5RU"}},{"type":"Feature","geometry":{"type":"Point","coordinates":[-2.0247430805945164,53.74148201483007]},"properties":{"name":"CORYLUS CONSULTING LTD.","address":"20 LONGSTAFF COURT, HEBDEN BRIDGE, UNITED KINGDOM, HX7 6AB","postcode":"HX7 6AB"}},{"type":"Feature","geometry":{"type":"Point","coordinates":[-1.9866507813545062,53.72565558235132]},"properties":{"name":"COUNTRYSIDE LEARNING","address":"UNIT 4F TOPLAND COUNTRY BUSINESS PARK, CRAGG VALE, HEBDEN BRIDGE, WEST YORKSHIRE, HX7 5RW","postcode":"HX7 5RW"}},{"type":"Feature","geometry":{"type":"Point","coordinates":[-2.020925089696317,53.748944081536564]},"properties":{"name":"CPPS POLICY EXCHANGE LTD","address":"64 TOWNGATE, HEPTONSTALL, HEBDEN BRIDGE, WEST YORKSHIRE, HX7 7NB","postcode":"HX7 7NB"}},{"type":"Feature","geometry":{"type":"Point","coordinates":[-1.9864088026921407,53.72565826022013]},"properties":{"name":"CPS COMPLIANCE SOLUTIONS LIMITED","address":"UNIT 10D TOPLAND COUNTRY BUSINESS PARK, CRAGG VALE, HEBDEN BRIDGE, WEST YORKSHIRE, HX7 5RW","postcode":"HX7 5RW"}},{"type":"Feature","geometry":{"type":"Point","coordinates":[-1.9973429472246254,53.75621574333988]},"properties":{"name":"CRAFTY PONIES LIMITED","address":"ALLSWELL FARM, WADSWORTH, HEBDEN BRIDGE, WEST YORKSHIRE, UNITED KINGDOM, HX7 8TF","postcode":"HX7 8TF"}},{"type":"Feature","geometry":{"type":"Point","coordinates":[-1.9957013387445628,53.70791976128711]},"properties":{"name":"CRAGG BUILDERS LIMITED","address":"CASTLE HALL UNIT, CRAGG VALE, HEBDEN BRIDGE, WEST YORKSHIRE, HX7 5SS","postcode":"HX7 5SS"}},{"type":"Feature","geometry":{"type":"Point","coordinates":[-2.050273243385109,53.76661968972849]},"properties":{"name":"CRAGG ENGINEERING SERVICES LIMITED","address":"ACRE LANE COTTAGE, WIDDOP ROAD, HEBDEN BRIDGE, WEST YORKSHIRE, HX7 7AZ","postcode":"HX7 7AZ"}},{"type":"Feature","geometry":{"type":"Point","coordinates":[-1.9956499598620598,53.70775448486583]},"properties":{"name":"CRAGG PROPERTIES LTD","address":"CASTLE HALL UNIT, CRAGG VALE, HEBDEN BRIDGE, WEST YORKSHIRE, HX7 5SS","postcode":"HX7 5SS"}},{"type":"Feature","geometry":{"type":"Point","coordinates":[-1.9979890348458034,53.69602017761758]},"properties":{"name":"CRAGG VALE COMMUNITY LIMITED","address":"2 GREEN BANK, HEBDEN BRIDGE, WEST YORKSHIRE, HX7 5TP","postcode":"HX7 5TP"}},{"type":"Feature","geometry":{"type":"Point","coordinates":[-1.9865985992805408,53.70439432211561]},"properties":{"name":"CRAGG VALE CONSULTANCY LIMITED","address":"COB CASTLE COPPY NOOK LANE CRAGG VALE, HEBDEN BRIDGE, WEST YORKSHIRE, HX7 5TU","postcode":"HX7 5TU"}},{"type":"Feature","geometry":{"type":"Point","coordinates":[-1.98254195486371,53.70764106575232]},"properties":{"name":"CRAGG VALE CONSULTING (CVC) LIMITED","address":"SWAT FARM COPPY NOOK LANE, CRAGG VALE, HEBDEN BRIDGE, HX7 5TX","postcode":"HX7 5TX"}},{"type":"Feature","geometry":{"type":"Point","coordinates":[-1.9922707522827703,53.695805363132585]},"properties":{"name":"CRAGGS ENERGY LIMITED","address":"THE CRAGGS COUNTRY BUSINESS PARK NEW ROAD, CRAGG VALE, HEBDEN BRIDGE, WEST YORKSHIRE, HX7 5TT","postcode":"HX7 5TT"}},{"type":"Feature","geometry":{"type":"Point","coordinates":[-1.9925310848400417,53.69591599099506]},"properties":{"name":"CRAGGS ENVIRONMENTAL LIMITED","address":"THE CRAGGS COUNTRY BUS PARK NEW ROAD, CRAGG VALE, HEBDEN BRIDGE, WEST YORKSHIRE, HX7 5TT","postcode":"HX7 5TT"}},{"type":"Feature","geometry":{"type":"Point","coordinates":[-1.992204258060746,53.69586335964099]},"properties":{"name":"CRAGGS FUEL CARDS LTD","address":"THE CRAGGS COUNTRY BUSINESS PARK NEW ROAD, CRAGG VALE, HEBDEN BRIDGE, WEST YORKSHIRE, ENGLAND, HX7 5TT","postcode":"HX7 5TT"}},{"type":"Feature","geometry":{"type":"Point","coordinates":[-2.0199455846315972,53.74157519598341]},"properties":{"name":"CREATIVE CANVAS LIMITED","address":"95 BRIDGE LANES, HEBDEN BRIDGE, WEST YORKSHIRE, HX7 6AT","postcode":"HX7 6AT"}},{"type":"Feature","geometry":{"type":"Point","coordinates":[-2.0160133563815457,53.741670275820425]},"properties":{"name":"CRESSWELL CRABTREE & SONS LIMITED","address":"BARCLAYS BANK CHAMBERS, MARKET STREET, HEBDEN BRIDGE, WEST YORKSHIRE, ENGLAND, HX7 6AD","postcode":"HX7 6AD"}},{"type":"Feature","geometry":{"type":"Point","coordinates":[-2.0158722639220095,53.741557342323766]},"properties":{"name":"CRESSWELLS ACCOUNTANTS (UK) LIMITED","address":"BARCLAYS BANK CHAMBERS, MARKET STREET, HEBDEN BRIDGE, WEST YORKSHIRE, UNITED KINGDOM, HX7 6AD","postcode":"HX7 6AD"}},{"type":"Feature","geometry":{"type":"Point","coordinates":[-2.01590961551439,53.741297800751646]},"properties":{"name":"CRESSWELLS ACCOUNTANTS LLP","address":"BARCLAYS BANK CHAMBERS, MARKET STREET, HEBDEN BRIDGE, WEST YORKSHIRE, HX7 6AD","postcode":"HX7 6AD"}},{"type":"Feature","geometry":{"type":"Point","coordinates":[-2.0162382050322245,53.74158634242036]},"properties":{"name":"CRESSWELLS LIMITED","address":"BARCLAYS BANK CHAMBERS, MARKET STREET, HEBDEN BRIDGE, WEST YORKSHIRE, HX7 6AD","postcode":"HX7 6AD"}},{"type":"Feature","geometry":{"type":"Point","coordinates":[-1.9827180157959203,53.73092078095403]},"properties":{"name":"CRESTFIELD IT SOLUTIONS LTD","address":"17 BURNLEY ROAD, MYTHOLMROYD, HEBDEN BRIDGE, WEST YORKSHIRE, UNITED KINGDOM, HX7 5LH","postcode":"HX7 5LH"}},{"type":"Feature","geometry":{"type":"Point","coordinates":[-1.9737382488584776,53.73391030249287]},"properties":{"name":"CRICKET ASYLUM LIMITED","address":"8 HULLETT CLOSE, HEBDEN BRIDGE, WEST YORKSHIRE, ENGLAND, HX7 5QP","postcode":"HX7 5QP"}},{"type":"Feature","geometry":{"type":"Point","coordinates":[-2.0169631185331087,53.74153684231275]},"properties":{"name":"CS HOTEL SOLUTIONS LTD","address":"CRESSWELLS, BARCLAYS BANK CHAMBERS, HEBDEN BRIDGE, WEST YORKSHIRE, ENGLAND, HX7 6AA","postcode":"HX7 6AA"}},{"type":"Feature","geometry":{"type":"Point","coordinates":[-1.9816230826037546,53.72768063482958]},"properties":{"name":"CSR DISTRIBUTION LIMITED","address":"CSR DISTRIBUTION ORCHARD BUSINESS PARK, SCOUT ROAD, HEBDEN BRIDGE, WEST YORKSHIRE, UNITED KINGDOM, HX7 5HZ","postcode":"HX7 5HZ"}},{"type":"Feature","geometry":{"type":"Point","coordinates":[-2.0059526656303954,53.76167010313418]},"properties":{"name":"CURIOUS CARGO LIMITED","address":"33 KEIGHLEY ROAD, PECKET WELL, HEBDEN BRIDGE, WEST YORKSHIRE, HX7 8QN","postcode":"HX7 8QN"}},{"type":"Feature","geometry":{"type":"Point","coordinates":[-1.9773170960031385,53.73011438931935]},"properties":{"name":"CUSTOMISED SEWING SERVICES LTD","address":"UNIT 1D WHITE LEE BUSINESS PARK, MYTHOLMROYD, HEBDEN BRIDGE, WEST YORKSHIRE, HX7 5AD","postcode":"HX7 5AD"}},{"type":"Feature","geometry":{"type":"Point","coordinates":[-2.0218964021164316,53.747736012194345]},"properties":{"name":"D P SQUARED LIMITED","address":"22 HEPTON DRIVE, HEPTONSTALL, HEBDEN BRIDGE, WEST YORKSHIRE, HX7 7LU","postcode":"HX7 7LU"}},{"type":"Feature","geometry":{"type":"Point","coordinates":[-1.9759457651719412,53.73402558766026]},"properties":{"name":"D.E.A. (YORKSHIRE) LTD","address":"5 LEE CLOUGH DRIVE, MYTHOLMROYD, HEBDEN BRIDGE, W YORKS, HX7 5PP","postcode":"HX7 5PP"}},{"type":"Feature","geometry":{"type":"Point","coordinates":[-2.012864702254825,53.74169446748804]},"properties":{"name":"DAISY AND SAM LTD.","address":"7 CROWN STREET, HEBDEN BRIDGE, WEST YORKSHIRE, HX7 8EH","postcode":"HX7 8EH"}},{"type":"Feature","geometry":{"type":"Point","coordinates":[-2.009882905567172,53.741408136147946]},"properties":{"name":"DARIO'S PIZZERIA LTD","address":"BEECHMOUNT, MARLBOROUGH ROAD, HEBDEN BRIDGE, WEST YORKSHIRE, HX7 8BW","postcode":"HX7 8BW"}},{"type":"Feature","geometry":{"type":"Point","coordinates":[-2.0202313166698445,53.74687186092612]},"properties":{"name":"DAWSON ACCESS LTD","address":"36 LONGFIELD, LONGFIELD, HEBDEN BRIDGE, WEST YORKSHIRE, ENGLAND, HX7 7LR","postcode":"HX7 7LR"}},{"type":"Feature","geometry":{"type":"Point","coordinates":[-2.0125369105685182,53.74379199763338]},"properties":{"name":"DECKMEDIA LIMITED","address":"BURLEES HOUSE, HANGINGROYD LANE, HEBDEN BRIDGE, WEST YORKSHIRE, HX7 7DD","postcode":"HX7 7DD"}},{"type":"Feature","geometry":{"type":"Point","coordinates":[-1.9826543555940332,53.7308344593074]},"properties":{"name":"DEE'S HOMECARE LTD","address":"17 BURNLEY ROAD, MYTHOLMROYD, HEBDEN BRIDGE, WEST YORKSHIRE, UNITED KINGDOM, HX7 5LH","postcode":"HX7 5LH"}},{"type":"Feature","geometry":{"type":"Point","coordinates":[-1.988421661404232,53.727496666575945]},"properties":{"name":"DELTA ORIGINS LIMITED","address":"34 CRAGG ROAD, HEBDEN BRIDGE, WEST YORKSHIRE, UNITED KINGDOM, HX7 5EG","postcode":"HX7 5EG"}},{"type":"Feature","geometry":{"type":"Point","coordinates":[-1.9972061440814513,53.749946081398015]},"properties":{"name":"DESIGNBYSIM LIMITED","address":"5 CHISERLEY FIELDSIDE, HEBDEN BRIDGE, WEST YORKSHIRE, HX7 8SA","postcode":"HX7 8SA"}},{"type":"Feature","geometry":{"type":"Point","coordinates":[-2.0024683829533796,53.742670555703434]},"properties":{"name":"DIAMOND DOGS DOG WALKING LIMITED","address":"6 MANOR DRIVE, HEBDON BRIDGE, UNITED KINGDOM, HX7 8DW","postcode":"HX7 8DW"}},{"type":"Feature","geometry":{"type":"Point","coordinates":[-2.0160213513463305,53.7416948649489]},"properties":{"name":"DIAMOND PROPERTIES (YORKSHIRE) LIMITED","address":"BARCLAYS BANK CHAMBERS, MARKET STREET, HEBDEN BRIDGE, WEST YORKSHIRE, HX7 6AD","postcode":"HX7 6AD"}},{"type":"Feature","geometry":{"type":"Point","coordinates":[-1.9904138765821011,53.731933488304044]},"properties":{"name":"DISCOTOX LIMITED","address":"6 PADDY BRIDGE ROAD, HEBDEN BRIDGE, WEST YORKSHIRE, UNITED KINGDOM, HX7 5BP","postcode":"HX7 5BP"}},{"type":"Feature","geometry":{"type":"Point","coordinates":[-1.9923892812488733,53.69585981538784]},"properties":{"name":"DISCOVERING LIFE LIMITED","address":"SUITE 10 CRAGGS OFFICE SUITES THE CRAGGS COUNTRY BUSINESS PARK, NEW ROAD, CRAGG VALE, HEBDEN BRIDGE, WEST YORKSHIRE, HX7 5TT","postcode":"HX7 5TT"}},{"type":"Feature","geometry":{"type":"Point","coordinates":[-1.997259373964972,53.75633510649237]},"properties":{"name":"DMC BUILDERS LIMITED","address":"ALLSWELL FARM, WADSWORTH, HEBDEN BRIDGE, WEST YORKSHIRE, HX7 8TF","postcode":"HX7 8TF"}},{"type":"Feature","geometry":{"type":"Point","coordinates":[-2.012652648355216,53.74369217834923]},"properties":{"name":"DNG LOCUM SERVICES LTD","address":"C/O FITTON & CO, BURLEES HOUSE, HANGINGROYD LANE, HEBDEN BRIDGE, ENGLAND, HX7 7DD","postcode":"HX7 7DD"}},{"type":"Feature","geometry":{"type":"Point","coordinates":[-1.9814775744932964,53.727708342395374]},"properties":{"name":"DOG HONEST LTD","address":"UNIT 7, ORCHARD BUSINESS PARK, HALIFAX, WEST YORKSHIRE, UNITED KINGDOM, HX7 5HZ","postcode":"HX7 5HZ"}},{"type":"Feature","geometry":{"type":"Point","coordinates":[-2.058829703386504,53.750041611695714]},"properties":{"name":"DOOLALLY INNS LTD","address":"NEW DELIGHT INN, BLACKSHAW HEAD, HEBDEN BRIDGE, WEST YORKSHIRE, ENGLAND, HX7 7HT","postcode":"HX7 7HT"}},{"type":"Feature","geometry":{"type":"Point","coordinates":[-2.016072417399002,53.74130303453484]},"properties":{"name":"DORA & HEGGARTY LIMITED","address":"BARCLAYS BANK CHAMBERS, MARKET STREET, HEBDEN BRIDGE, WEST YORKSHIRE, ENGLAND, HX7 6AD","postcode":"HX7 6AD"}},{"type":"Feature","geometry":{"type":"Point","coordinates":[-2.012725808753825,53.744002670886566]},"properties":{"name":"DOWN2EARTH CENTRE LTD","address":"SUITE 4, BURLEES HOUSE, HANGINGROYD LANE, HEBDEN BRIDGE, ENGLAND, HX7 7DD","postcode":"HX7 7DD"}},{"type":"Feature","geometry":{"type":"Point","coordinates":[-2.0123601225332663,53.75266780179388]},"properties":{"name":"DR J REDFERN LIMITED","address":"VALHALLA, LEE MILL ROAD, HEBDEN BRIDGE, WEST YORKSHIRE, ENGLAND, HX7 7AE","postcode":"HX7 7AE"}},{"type":"Feature","geometry":{"type":"Point","coordinates":[-2.041528096397155,53.73683757547487]},"properties":{"name":"DR LINDA PATTERSON LIMITED","address":"KNOTT HALL, CHARLESTOWN, HEBDEN BRIDGE, WEST YORKSHIRE, ENGLAND, HX7 6PE","postcode":"HX7 6PE"}},{"type":"Feature","geometry":{"type":"Point","coordinates":[-1.9734994100282737,53.72956626164992]},"properties":{"name":"DREW FORSYTH & CO LTD.","address":"UNIT 1A MODERNA BUSINESS PARK MODERNA WAY, MYTHOLMROYD, HEBDEN BRIDGE, W. YORKS, HX7 5QQ","postcode":"HX7 5QQ"}},{"type":"Feature","geometry":{"type":"Point","coordinates":[-2.0142075328057114,53.74117612261936]},"properties":{"name":"DREW FORSYTH DESIGNS LTD","address":"27 WEST END, HEBDEN BRIDGE, WEST YORKSHIRE, HX7 8UQ","postcode":"HX7 8UQ"}},{"type":"Feature","geometry":{"type":"Point","coordinates":[-2.0160855019615003,53.74154752759276]},"properties":{"name":"DRING TECHNOLOGY SOLUTIONS LIMITED","address":"BARCLAYS BANK CHAMBERS, MARKET STREET, HEBDEN BRIDGE, WEST YORKSHIRE, ENGLAND, HX7 6AD","postcode":"HX7 6AD"}},{"type":"Feature","geometry":{"type":"Point","coordinates":[-1.982660573188345,53.73065726169338]},"properties":{"name":"DRYSURE UK LTD","address":"17 BURNLEY ROAD, MYTHOLMROYD, HEBDEN BRIDGE, WEST YORKSHIRE, UNITED KINGDOM, HX7 5LH","postcode":"HX7 5LH"}},{"type":"Feature","geometry":{"type":"Point","coordinates":[-2.015904044430306,53.74150262192366]},"properties":{"name":"DUALMIST FIRE PRODUCTS LIMITED","address":"BARCLAYS BANK CHAMBERS, MARKET STREET, HEBDEN BRIDGE, WEST YORKSHIRE, HX7 6AD","postcode":"HX7 6AD"}},{"type":"Feature","geometry":{"type":"Point","coordinates":[-2.016056377288814,53.741621741833825]},"properties":{"name":"DUALMIST LIMITED","address":"BARCLAYS BANK CHAMBERS, MARKET STREET, HEBDEN BRIDGE, WEST YORKSHIRE, ENGLAND, HX7 6AD","postcode":"HX7 6AD"}},{"type":"Feature","geometry":{"type":"Point","coordinates":[-2.015882034088122,53.74139892909758]},"properties":{"name":"DUVKET INVESTMENTS LIMITED","address":"BARCLAYS BANK CHAMBERS, MARKET STREET, HEBDEN BRIDGE, WEST YORKSHIRE, ENGLAND, HX7 6AD","postcode":"HX7 6AD"}},{"type":"Feature","geometry":{"type":"Point","coordinates":[-1.9825174709850708,53.73081745070953]},"properties":{"name":"E.S. MAINTENANCE SERVICES LTD","address":"17 BURNLEY ROAD, MYTHOLMROYD, HEBDEN BRIDGE, WEST YORKSHIRE, HX7 5LH","postcode":"HX7 5LH"}},{"type":"Feature","geometry":{"type":"Point","coordinates":[-2.0127534058645296,53.7438024927241]},"properties":{"name":"EASTWOODS RENEWABLES LIMITED","address":"C/O FITTON & CO BURLEES HOUSE, HANGINGROYD LANE, HEBDEN BRIDGE, HX7 7DD","postcode":"HX7 7DD"}},{"type":"Feature","geometry":{"type":"Point","coordinates":[-1.9860599243946724,53.731046319502326]},"properties":{"name":"ECLIPSE CLIMBING LIMITED","address":"44 CALDENE AVENUE, HEBDEN BRIDGE, HX7 5AF","postcode":"HX7 5AF"}},{"type":"Feature","geometry":{"type":"Point","coordinates":[-1.9799202169247343,53.73220506138383]},"properties":{"name":"ECO FRIENDLY FURNISHINGS LIMITED","address":"MOUNT PLEASANT MILLS MIDGLEY ROAD, MYTHOLMROYD, HEBDEN BRIDGE, WEST YORKSHIRE, HX7 5LR","postcode":"HX7 5LR"}},{"type":"Feature","geometry":{"type":"Point","coordinates":[-2.0462139897144382,53.73287953420494]},"properties":{"name":"ECO HEAT AND POWER LIMITED","address":"2 SANDBED, HEBDEN BRIDGE, WEST YORKSHIRE, HX7 6PT","postcode":"HX7 6PT"}},{"type":"Feature","geometry":{"type":"Point","coordinates":[-2.0172545727490476,53.74029183358949]},"properties":{"name":"ECO SCHOOL PRODUCTS LTD","address":"BEEHIVE MILLS, HEBBLE END, HEBDEN BRIDGE, WEST YORKSHIRE, ENGLAND, HX7 6HJ","postcode":"HX7 6HJ"}},{"type":"Feature","geometry":{"type":"Point","coordinates":[-2.011795940313226,53.74799713670216]},"properties":{"name":"EFFECTIVE WORK FORCE SOLUTIONS LIMITED","address":"3 NURSERY NOOK, HEBDEN BRIDGE, HALIFAX, WEST YORKSHIRE, HX7 8NA","postcode":"HX7 8NA"}},{"type":"Feature","geometry":{"type":"Point","coordinates":[-2.0159504988536185,53.741186869050345]},"properties":{"name":"ELEMENT JEWELLERY LTD.","address":"25 MARKET STREET, HEBDEN BRIDGE, WEST YORKSHIRE, HX7 6EU","postcode":"HX7 6EU"}},{"type":"Feature","geometry":{"type":"Point","coordinates":[-1.9994292374265152,53.705100134151905]},"properties":{"name":"ELIXIR SYSTEMS LIMITED","address":"THE OLD STABLES, BLACKSTONE EDGE ROAD CRAGG VALE, NR HEBDEN BRIDGE, WEST YORKSHIRE, HX7 5TG","postcode":"HX7 5TG"}},{"type":"Feature","geometry":{"type":"Point","coordinates":[-1.9962870858084305,53.6982542205217]},"properties":{"name":"ELIZABETH MCWHIRTER LIMITED","address":"3 LITTLEWOOD, CRAGG VALE, HEBDEN BRIDGE, WEST YORKSHIRE, HX7 5TL","postcode":"HX7 5TL"}},{"type":"Feature","geometry":{"type":"Point","coordinates":[-2.01577095936666,53.741478362026896]},"properties":{"name":"ELLENBROOK PARTNERS LIMITED","address":"BARCLAYS BANK CHAMBERS, MARKET STREET, HEBDEN BRIDGE, UNITED KINGDOM, HX7 6AD","postcode":"HX7 6AD"}},{"type":"Feature","geometry":{"type":"Point","coordinates":[-2.029618358501237,53.74137768000056]},"properties":{"name":"ELLIVIEW LIMITED","address":"WOODENTOPS, SAVILE ROAD, HEBDEN BRIDGE, WEST YORKSHIRE, ENGLAND, HX7 6ND","postcode":"HX7 6ND"}},{"type":"Feature","geometry":{"type":"Point","coordinates":[-2.0091351715457275,53.74004559782941]},"properties":{"name":"EQUINE SOLUTIONS UK LIMITED","address":"2 MACHPELAH, HEBDEN BRIDGE, WEST YORKSHIRE, HX7 8AU","postcode":"HX7 8AU"}},{"type":"Feature","geometry":{"type":"Point","coordinates":[-2.0050694368008353,53.74477996840192]},"properties":{"name":"ERIN SOLUTIONS LIMITED","address":"6 SANDY GATE, HEBDEN BRIDGE, WEST YORKSHIRE, UNITED KINGDOM, HX7 8HZ","postcode":"HX7 8HZ"}},{"type":"Feature","geometry":{"type":"Point","coordinates":[-1.9865471489423052,53.72588709193253]},"properties":{"name":"ETERNAL BEAUTY STUDIO LIMITED","address":"UNIT 10D TOPLAND COUNTRY BUSINESS PARK, CRAGG VALE, HEBDEN BRIDGE, WEST YORKSHIRE, HX7 5RW","postcode":"HX7 5RW"}},{"type":"Feature","geometry":{"type":"Point","coordinates":[-2.01199579604482,53.741085960253855]},"properties":{"name":"EVANMORE LTD","address":"THE OLD POLICE STATION, HOPE STREET, HEBDEN BRIDGE, WEST YORKSHIRE, ENGLAND, HX7 8AG","postcode":"HX7 8AG"}},{"type":"Feature","geometry":{"type":"Point","coordinates":[-2.0152083307347657,53.74578949764437]},"properties":{"name":"EVERSLEY ROAD MANAGEMENT LIMITED","address":"1 SLATER BANK, HEBDEN BRIDGE, WEST YORKS, HX7 7DY","postcode":"HX7 7DY"}},{"type":"Feature","geometry":{"type":"Point","coordinates":[-1.9896431974147184,53.71974955194692]},"properties":{"name":"EXPERTREAT LIMITED","address":"UNIT 3A TOP LAND COUNTRY, BUSINESS PARK CRAGG ROAD, MYTHOLMROYD HEBDEN BRIDGE, WEST YORKSHIRE, HX7 5RU","postcode":"HX7 5RU"}},{"type":"Feature","geometry":{"type":"Point","coordinates":[-1.9825407780710254,53.73073115047497]},"properties":{"name":"F M AND K CONSTRUCTION LTD","address":"C/O LORD & SWAIN ACCOUNTANTS 17 BURNLEY ROAD, MYTHOLMROYD, HEBDEN BRIDGE, UNITED KINGDOM, HX7 5LH","postcode":"HX7 5LH"}},{"type":"Feature","geometry":{"type":"Point","coordinates":[-1.977867901284184,53.729343589924575]},"properties":{"name":"FACTORYLUX LTD","address":"OLD TROUSER FACTORY GREENHILL INDUSTRIAL MYTHOLMROYD, MYTHOLMROYD, HEBDEN BRIDGE, UNITED KINGDOM, HX7 5QF","postcode":"HX7 5QF"}},{"type":"Feature","geometry":{"type":"Point","coordinates":[-2.0058433375915397,53.76334978810641]},"properties":{"name":"FAIRBANKS FOOD&DRINK CONSULTANCY LTD.","address":"44 KEIGHLEY ROAD, PECKETT WELL, HEBDEN BRIDGE, HALIFAX, HX7 8QX","postcode":"HX7 8QX"}},{"type":"Feature","geometry":{"type":"Point","coordinates":[-2.0127423364196697,53.74389144147858]},"properties":{"name":"FAST DOORS DIRECT LTD","address":"C/O FITTON & CO BURLEES HOUSE, HANGINGROYD LANE, HEBDEN BRIDGE, ENGLAND, HX7 7DD","postcode":"HX7 7DD"}},{"type":"Feature","geometry":{"type":"Point","coordinates":[-2.0126911570383257,53.74245958688409]},"properties":{"name":"FAST LANE (YORKSHIRE) LIMITED","address":"SUITE ONE HAWKSTONE HOUSE, VALLEY ROAD, HEBDEN BRIDGE, WEST YORKSHIRE, HX7 7BL","postcode":"HX7 7BL"}},{"type":"Feature","geometry":{"type":"Point","coordinates":[-1.9775598005958148,53.73161903545496]},"properties":{"name":"FEET FIRST CHIROPODY & PODIATRY LIMITED","address":"4 LAUREATE PLACE, MYTHOLMROYD, HEBDEN BRIDGE, WEST YORKSHIRE, ENGLAND, HX7 5PS","postcode":"HX7 5PS"}},{"type":"Feature","geometry":{"type":"Point","coordinates":[-2.016977466346822,53.74147594483479]},"properties":{"name":"FIBRE SUPERIORE LIMITED","address":"BARCLAYS BANK CHAMBERS, HEBDEN BRIDGE, HALIFAX, WEST YORKSHIRE, HX7 6AA","postcode":"HX7 6AA"}},{"type":"Feature","geometry":{"type":"Point","coordinates":[-2.011360326901955,53.76488888237578]},"properties":{"name":"FILIO LIMITED","address":"LOWER CRIMSWORTH HOUSE, PECKET WELL, HEBDEN BRIDGE, HX7 8RB","postcode":"HX7 8RB"}},{"type":"Feature","geometry":{"type":"Point","coordinates":[-1.9974157110240331,53.74941403015724]},"properties":{"name":"FIONA ARMER LIMITED","address":"3 LOWER CHISERLEY, BILLY LANE, HEBDEN BRIDGE, HX7 8RZ","postcode":"HX7 8RZ"}},{"type":"Feature","geometry":{"type":"Point","coordinates":[-2.015703235305272,53.7417113007388]},"properties":{"name":"FIR WOOD IT LLP","address":"BARCLAYS BANK CHAMBERS, MARKET STREET, HEBDEN BRIDGE, WEST YORKSHIRE, HX7 6AD","postcode":"HX7 6AD"}},{"type":"Feature","geometry":{"type":"Point","coordinates":[-2.0108402508449865,53.74607253409556]},"properties":{"name":"FITTON & CO ACCOUNTANTS LIMITED","address":"38 HIGHFIELD CRESCENT, HEBDEN BRIDGE, WEST YORKSHIRE, HX7 8LA","postcode":"HX7 8LA"}},{"type":"Feature","geometry":{"type":"Point","coordinates":[-1.9813761917187893,53.72758116794128]},"properties":{"name":"FLOWER OF LIFE LTD","address":"UNIT 2A ORCHARD BUSINESS PARK, SCOUT ROAD, HEBDEN BRIDGE, WEST YORKSHIRE, HX7 5HZ","postcode":"HX7 5HZ"}},{"type":"Feature","geometry":{"type":"Point","coordinates":[-2.0058294470787517,53.763285356180056]},"properties":{"name":"FOOD & DRINK EXPORTERS ASSOCIATION LIMITED","address":"CHANGE COTTAGE 43/44 KEIGHLEY ROAD, PECKET WELL, HEBDEN BRIDGE, WEST YORKSHIRE, HX7 8QX","postcode":"HX7 8QX"}},{"type":"Feature","geometry":{"type":"Point","coordinates":[-2.005992290828199,53.76328135918382]},"properties":{"name":"FOOD & DRINK EXPORTESE LIMITED","address":"44 KEIGHLEY ROAD, PECKET WELL, HEBDEN BRIDGE, WEST YORKSHIRE, HX7 8QX","postcode":"HX7 8QX"}},{"type":"Feature","geometry":{"type":"Point","coordinates":[-2.0639877358658727,53.744512067811165]},"properties":{"name":"FRANKEL ESTATES LIMITED","address":"3 MOOR HOUSE VIEW, BLACKSHAW HEAD, HEBDEN BRIDGE, WEST YORKSHIRE, UNITED KINGDOM, HX7 7EL","postcode":"HX7 7EL"}},{"type":"Feature","geometry":{"type":"Point","coordinates":[-2.028435092586079,53.741912105539384]},"properties":{"name":"FROD DIGITAL DEVELOPMENT LTD","address":"EAST VIEW, SAVILE ROAD, HEBDEN BRIDGE, WEST YORKSHIRE, HX7 6LZ","postcode":"HX7 6LZ"}},{"type":"Feature","geometry":{"type":"Point","coordinates":[-2.0153321604526857,53.744799116498655]},"properties":{"name":"FROZENSHEEP LTD","address":"12 ESKDALE MOUNT, HEBDEN BRIDGE, WEST YORKSHIRE, HX7 7EB","postcode":"HX7 7EB"}},{"type":"Feature","geometry":{"type":"Point","coordinates":[-1.9827039486502296,53.73080752645977]},"properties":{"name":"FUNKLE CHICKEN LTD","address":"17 BURNLEY ROAD, MYTHOLMROYD, HEBDEN BRIDGE, UNITED KINGDOM, HX7 5LH","postcode":"HX7 5LH"}},{"type":"Feature","geometry":{"type":"Point","coordinates":[-2.0172328241897146,53.741664048534325]},"properties":{"name":"FUSION IT CONSULTANTS LTD","address":"5 THE MILL, BRUNSWICK STREET, HEBDEN BRIDGE, WEST YORKSHIRE, HX7 6AF","postcode":"HX7 6AF"}},{"type":"Feature","geometry":{"type":"Point","coordinates":[-2.011494570871238,53.74172586651691]},"properties":{"name":"GARETH CONNOR LIMITED","address":"C/O BACK TO BASICS MANAGEMENT 4 GARDEN STREET, HEBDEN BRIDGE, WEST YORKSHIRE, UNITED KINGDOM, HX7 8AQ","postcode":"HX7 8AQ"}},{"type":"Feature","geometry":{"type":"Point","coordinates":[-1.9879190399536224,53.72918575228823]},"properties":{"name":"GASWORKS TODMORDEN LIMITED","address":"18 STOCKS GARDENS, MYTHOLMROYD, HEBDEN BRIDGE, WEST YORKSHIRE, UNITED KINGDOM, HX7 5AY","postcode":"HX7 5AY"}},{"type":"Feature","geometry":{"type":"Point","coordinates":[-1.9737472309955335,53.72974034352715]},"properties":{"name":"GB AIR CONTROL LIMITED","address":"UNIT 14A & B, MODERNA BUSINESS PARK, MODERNA WAY MYTHOLMROYD, HEBDEN BRIDGE, WEST YORKSHIRE, HX7 5QQ","postcode":"HX7 5QQ"}},{"type":"Feature","geometry":{"type":"Point","coordinates":[-2.0143963500339206,53.74297473314218]},"properties":{"name":"GEANT4 ASSOCIATES INTERNATIONAL LTD","address":"9 ROYD TERRACE, HEBDEN BRIDGE, HX7 7BT","postcode":"HX7 7BT"}},{"type":"Feature","geometry":{"type":"Point","coordinates":[-2.0129930715396456,53.74270594533362]},"properties":{"name":"GEEKOLOGY LTD","address":"TOWN HALL, ST. GEORGES STREET, HEBDEN BRIDGE, WEST YORKSHIRE, HX7 7BY","postcode":"HX7 7BY"}},{"type":"Feature","geometry":{"type":"Point","coordinates":[-2.0115720165833313,53.74582525183725]},"properties":{"name":"GEVULOT LIMITED","address":"6 BROUGHTON STREET, HEBDEN BRIDGE, WEST YORKSHIRE, ENGLAND, HX7 8JY","postcode":"HX7 8JY"}},{"type":"Feature","geometry":{"type":"Point","coordinates":[-2.0384774281689593,53.74378814911561]},"properties":{"name":"GHA 2011 LIMITED","address":"GREEN HOUSE FARM, NEW LANE, BLACKSHAWHEAD, HEBDEN BRIDGE, WEST YORKSHIRE, HX7 7JR","postcode":"HX7 7JR"}},{"type":"Feature","geometry":{"type":"Point","coordinates":[-1.9864282841210634,53.72736311064292]},"properties":{"name":"GIANT OAK TREE LIMITED","address":"18 THE BROOK, MYTHOLMROYD, HEBDEN BRIDGE, WEST YORKSHIRE, HX7 5ED","postcode":"HX7 5ED"}},{"type":"Feature","geometry":{"type":"Point","coordinates":[-2.0266754083662737,53.74361237164846]},"properties":{"name":"GIBBONS ASSOCIATES LTD","address":"HILL BRINK, MYTHOLM BANK, HEBDEN BRIDGE, HX7 6DL","postcode":"HX7 6DL"}},{"type":"Feature","geometry":{"type":"Point","coordinates":[-2.057960337688501,53.751864289290346]},"properties":{"name":"GISMOSYS LIMITED","address":"SHADE TAVERN, LOWER SMITHY, COLDEN, HEBDEN BRIDGE, WEST YORKSHIRE, UNITED KINGDOM, HX7 7HP","postcode":"HX7 7HP"}},{"type":"Feature","geometry":{"type":"Point","coordinates":[-1.982070119801504,53.72950721558738]},"properties":{"name":"GNR MOTOR ENGINEERS LTD","address":"UNIT 1, GEORGE STREET, MYTHOLMROYD, HEBDEN BRIDGE, WEST YORKSHIRE, HX7 5DT","postcode":"HX7 5DT"}},{"type":"Feature","geometry":{"type":"Point","coordinates":[-1.98263891694892,53.730845584315794]},"properties":{"name":"GOLDEN FISH 168 LIMITED","address":"3 BURNLEY ROAD, MYTHOLMROYD, HEBDEN BRIDGE, ENGLAND, HX7 5LH","postcode":"HX7 5LH"}},{"type":"Feature","geometry":{"type":"Point","coordinates":[-2.008097723963431,53.78058791840851]},"properties":{"name":"GRAIN FARM LIMITED","address":"GRAIN FARM, WADSWORTH, HEBDEN BRIDGE, WEST YORKSHIRE, HX7 8RG","postcode":"HX7 8RG"}},{"type":"Feature","geometry":{"type":"Point","coordinates":[-2.0195436102826063,53.741474165650466]},"properties":{"name":"GRAPHICA DISPLAY LIMITED","address":"95 BRIDGE LANES, HEBDEN BRIDGE, WEST YORKSHIRE, HX7 6AT","postcode":"HX7 6AT"}},{"type":"Feature","geometry":{"type":"Point","coordinates":[-2.058021715995749,53.751890935780665]},"properties":{"name":"GREAT ROCK LTD.","address":"2 LOWER SMITHY, COLDEN, HEBDEN BRIDGE, WEST YORKSHIRE, HX7 7HP","postcode":"HX7 7HP"}},{"type":"Feature","geometry":{"type":"Point","coordinates":[-2.000240952215452,53.75088119336677]},"properties":{"name":"GREATER THAN LTD","address":"2 GREEN END, HEBDEN BRIDGE, WEST YORKSHIRE, UNITED KINGDOM, HX7 8SQ","postcode":"HX7 8SQ"}},{"type":"Feature","geometry":{"type":"Point","coordinates":[-2.014034273782654,53.74187132420112]},"properties":{"name":"GREEN ALUMINIUM LIMITED","address":"HEBBLE HOUSE, OLDGATE, HEBDEN BRIDGE, WEST YORKSHIRE, HX7 6EN","postcode":"HX7 6EN"}},{"type":"Feature","geometry":{"type":"Point","coordinates":[-1.9826508161684828,53.73079397328984]},"properties":{"name":"GREEN VALLEY ARBORISTS LTD","address":"17 BURNLEY ROAD, MYTHOLMROYD, HEBDEN BRIDGE, UNITED KINGDOM, HX7 5LH","postcode":"HX7 5LH"}},{"type":"Feature","geometry":{"type":"Point","coordinates":[-2.0374897857154464,53.752010316137834]},"properties":{"name":"GREENS PEDIGREE CHICKS LIMITED","address":"PINFOLD FARM, HEPTONSTALL, HEBDEN BRIDGE, HX7 7PD","postcode":"HX7 7PD"}},{"type":"Feature","geometry":{"type":"Point","coordinates":[-2.0123974199627526,53.74276683050397]},"properties":{"name":"GREYFRIARS ADVISORY LIMITED","address":"5-6 WRAGLEY HOUSE, VALLEY ROAD, HEBDEN BRIDGE, WEST YORKSHIRE, HX7 7BN","postcode":"HX7 7BN"}},{"type":"Feature","geometry":{"type":"Point","coordinates":[-2.0157618992849127,53.74096675516168]},"properties":{"name":"GROUND FLOOR","address":"SALEM COMMUNITY CENTRE, CENTRAL STREET, HEBDEN BRIDGE, WEST YORKSHIRE, HX7 6HB","postcode":"HX7 6HB"}},{"type":"Feature","geometry":{"type":"Point","coordinates":[-2.012737114000941,53.74375817292889]},"properties":{"name":"GROWTH INTO AWARENESS (2014) LIMITED","address":"SUITE 5, BURLEES HOUSE, HANGINGROYD LANE, HEBDEN BRIDGE, ENGLAND, HX7 7DD","postcode":"HX7 7DD"}},{"type":"Feature","geometry":{"type":"Point","coordinates":[-1.9898138961331824,53.71953832570776]},"properties":{"name":"GSM PROJECTS LIMITED","address":"UNIT 1C DEAN HAY FARM, CRAGG VALE, HEBDEN BRIDGE, WEST YORKSHIRE, ENGLAND, HX7 5RU","postcode":"HX7 5RU"}},{"type":"Feature","geometry":{"type":"Point","coordinates":[-1.9949940324910924,53.73383277620808]},"properties":{"name":"GUARD TECH INDUSTRIAL SERVICES LIMITED","address":"HOLME END WORKS CALDERBROOK, BURNLEY ROAD, HEBDEN BRIDGE, WEST YORKSHIRE, HX7 8NX","postcode":"HX7 8NX"}},{"type":"Feature","geometry":{"type":"Point","coordinates":[-1.99508768666441,53.73394452810977]},"properties":{"name":"GUARD-TECH SHEET METAL LIMITED","address":"HOLME END WORKS CALDERBROOK, BURNLEY ROAD, HEBDEN BRIDGE, WEST YORKSHIRE, ENGLAND, HX7 8NX","postcode":"HX7 8NX"}},{"type":"Feature","geometry":{"type":"Point","coordinates":[-2.0161307964446284,53.74172491122791]},"properties":{"name":"GULLSEDGE LTD","address":"32 HANGINGROYD ROAD, HEBDEN BRIDGE, WEST YORKSHIRE, UNITED KINGDOM, HX7 6AH","postcode":"HX7 6AH"}},{"type":"Feature","geometry":{"type":"Point","coordinates":[-1.9969358883479182,53.734329289894745]},"properties":{"name":"GUY HALEY LIMITED","address":"CALDERBROOK HOUSE, HOLME END ROAD, HEBDEN BRIDGE, ENGLAND, HX7 8NE","postcode":"HX7 8NE"}},{"type":"Feature","geometry":{"type":"Point","coordinates":[-2.012631107585114,53.77004356218971]},"properties":{"name":"GWC CONSULTING LIMITED","address":"LOWER SMALL SHAW FARM OLD ROAD, PECKET WELL, HEBDEN BRIDGE, HX7 8RF","postcode":"HX7 8RF"}},{"type":"Feature","geometry":{"type":"Point","coordinates":[-1.986459640798423,53.72562915878942]},"properties":{"name":"H & R PLANT SERVICES (TODMORDEN) LIMITED","address":"UNIT 10D TOPLAND COUNTRY BUSINESS PARK, CRAGG VALE, HEBDEN BRIDGE, WEST YORKSHIRE, HX7 5RW","postcode":"HX7 5RW"}},{"type":"Feature","geometry":{"type":"Point","coordinates":[-2.0274989960686267,53.745992663330554]},"properties":{"name":"H D SALVAGE LIMITED","address":"18 EAVES AVENUE, HEBDEN BRIDGE, WEST YORKSHIRE, HX7 6DJ","postcode":"HX7 6DJ"}},{"type":"Feature","geometry":{"type":"Point","coordinates":[-1.972019810636708,53.73053478474807]},"properties":{"name":"H.E.C. CONTRACTING LIMITED","address":"ELECTRIC HOUSE, MODERNA WAY, MYTHOLMROYD, HEBDEN BRIDGE, WEST YORKSHIRE, HX7 5PZ","postcode":"HX7 5PZ"}},{"type":"Feature","geometry":{"type":"Point","coordinates":[-2.0115332128444416,53.743840187080316]},"properties":{"name":"H.O.H. ASSETS LIMITED","address":"UNIT 6 PENNINE INDUSTRIAL ESTATE, VALLEY ROAD, HEBDEN BRIDGE, WEST YORKSHIRE, HX7 7BZ","postcode":"HX7 7BZ"}},{"type":"Feature","geometry":{"type":"Point","coordinates":[-2.012653983277879,53.74367622561579]},"properties":{"name":"HAIGH HEALTH CONSULTING LTD","address":"C/O FITTON & CO BURLEES HOUSE, HANGINGROYD LANE, HEBDEN BRIDGE, ENGLAND, HX7 7DD","postcode":"HX7 7DD"}},{"type":"Feature","geometry":{"type":"Point","coordinates":[-2.0159128492178593,53.74165571691486]},"properties":{"name":"HALF BLUE","address":"BARCLAYS BANK CHAMBERS, MARKET STREET, HEBDEN BRIDGE, WEST YORKSHIRE, HX7 6AD","postcode":"HX7 6AD"}},{"type":"Feature","geometry":{"type":"Point","coordinates":[-2.020755696023204,53.74102579309247]},"properties":{"name":"HALIFAX WIREFORM CO.LIMITED","address":"CALDER MILL, HEBDEN BRIDGE, WEST YORKSHIRE, HX7 6LJ","postcode":"HX7 6LJ"}},{"type":"Feature","geometry":{"type":"Point","coordinates":[-2.0164734002919475,53.739574742792605]},"properties":{"name":"HALL WAY PARTNERS LIMITED","address":"3 STANLEIGH CROFT, PALACE HOUSE ROAD, HEBDEN BRIDGE, WEST YORKSHIRE, HX7 6HD","postcode":"HX7 6HD"}},{"type":"Feature","geometry":{"type":"Point","coordinates":[-2.013817880894345,53.746018345326156]},"properties":{"name":"HANDMADE PARADE CIC","address":"UNIT 5, VICTORIA ROAD, HEBDEN BRIDGE, WEST YORKSHIRE, ENGLAND, HX7 8LN","postcode":"HX7 8LN"}},{"type":"Feature","geometry":{"type":"Point","coordinates":[-2.0169785668034903,53.741404249179766]},"properties":{"name":"HANNAH NUNN LIMITED","address":"26 MARKET STREET, HEBDEN BRIDGE, WEST YORKSHIRE, HX7 6AA","postcode":"HX7 6AA"}},{"type":"Feature","geometry":{"type":"Point","coordinates":[-2.0128358425575708,53.74391089118672]},"properties":{"name":"HANSROD CONSULTING LTD","address":"C/O FITTON & CO, BURLEES HOUSE, HANGINGROYD LANE, HEBDEN BRIDGE, ENGLAND, HX7 7DD","postcode":"HX7 7DD"}},{"type":"Feature","geometry":{"type":"Point","coordinates":[-2.0090304318867456,53.74385916979547]},"properties":{"name":"HAPPY VALLEY DECORATING LIMITED","address":"9 EDWARD STREET, HEBDEN BRIDGE, WEST YORKSHIRE, HX7 8DF","postcode":"HX7 8DF"}},{"type":"Feature","geometry":{"type":"Point","coordinates":[-2.0222463637742205,53.748914268433204]},"properties":{"name":"HARD ACT THEATRE COMPANY LTD","address":"28 CHURCH STREET, HEPTONSTALL, HEBDEN BRIDGE, HX7 7NS","postcode":"HX7 7NS"}},{"type":"Feature","geometry":{"type":"Point","coordinates":[-2.0047521186094763,53.75608851029359]},"properties":{"name":"HARD BOILED EGG LIMITED","address":"COUSINVILLE, WADSWORTH, HEBDEN BRIDGE, ENGLAND, HX7 8TB","postcode":"HX7 8TB"}},{"type":"Feature","geometry":{"type":"Point","coordinates":[-2.023154131381762,53.74663741125902]},"properties":{"name":"HARDMAN INFORMATION TECHNOLOGY CONSULTING LTD","address":"25 BECKETTS CLOSE, HEPTONSTALL, HEBDEN BRIDGE, WEST YORKSHIRE, ENGLAND, HX7 7LJ","postcode":"HX7 7LJ"}},{"type":"Feature","geometry":{"type":"Point","coordinates":[-2.082545284558818,53.7476929015648]},"properties":{"name":"HARTLEY ACCOMODATION LTD","address":"MOORHALL FARM COTTAGE MOORHALL FARM COTTAGE, BLACKSHAW HEAD, HEBDEN BRIDGE, UNITED KINGDOM, HX7 7JA","postcode":"HX7 7JA"}},{"type":"Feature","geometry":{"type":"Point","coordinates":[-2.0259813564031384,53.74113646269609]},"properties":{"name":"HAVELOCK PLACE MANAGEMENT (WHITBY) LIMITED","address":"HILLCROFT, STUBBING DRIVE, HEBDEN BRIDGE, WEST YORKSHIRE, WEST YORKSHIRE, HX7 6LS","postcode":"HX7 6LS"}},{"type":"Feature","geometry":{"type":"Point","coordinates":[-2.0231051949233843,53.741117194234455]},"properties":{"name":"HEART TO HEART CONNECTION LTD","address":"11 TRINITY STREET, HEBDEN BRIDGE, W YORKSHIRE, HX7 6LP","postcode":"HX7 6LP"}},{"type":"Feature","geometry":{"type":"Point","coordinates":[-2.074356236503148,53.76180590451624]},"properties":{"name":"HEATH AND HERB LIMITED","address":"POPPLES CLOSE FARM, EDGE LANE HEPTONSTALL, HEBDEN BRIDGE, UNITED KINGDOM, HX7 7PG","postcode":"HX7 7PG"}},{"type":"Feature","geometry":{"type":"Point","coordinates":[-1.9800933808264753,53.73657461286799]},"properties":{"name":"HEATHER J CONNOR LIMITED","address":"HILL HOUSE FARM, RAW LANE MYTHOLMROYD, HEBDEN BRIDGE, WEST YORKSHIRE, UNITED KINGDOM, HX7 5RF","postcode":"HX7 5RF"}},{"type":"Feature","geometry":{"type":"Point","coordinates":[-2.0140449039383608,53.74183434738135]},"properties":{"name":"HEBBLE HOUSE LTD","address":"HEBBLE HOUSE, OLDGATE, HEBDEN BRIDGE, UNITED KINGDOM, HX7 6EN","postcode":"HX7 6EN"}},{"type":"Feature","geometry":{"type":"Point","coordinates":[-2.0138818720380347,53.74594631677352]},"properties":{"name":"HEBDEN BRIDGE ALTERNATIVE TECHNOLOGY CENTRE","address":"UNIT 7, VICTORIA WORKS, VICTORIA ROAD, HEBDEN BRIDGE, WEST YORKSHIRE, HX7 8LN","postcode":"HX7 8LN"}},{"type":"Feature","geometry":{"type":"Point","coordinates":[-2.0133675637982966,53.74251633731658]},"properties":{"name":"HEBDEN BRIDGE ARTS FESTIVAL LTD","address":"HEBDEN BRIDGE TOWN HALL, ST. GEORGES STREET, HEBDEN BRIDGE, WEST YORKSHIRE, HX7 7BY","postcode":"HX7 7BY"}},{"type":"Feature","geometry":{"type":"Point","coordinates":[-2.0821340565287483,53.74412018626845]},"properties":{"name":"HEBDEN BRIDGE BREWING COMPANY LIMITED","address":"SMITHY FARM LONG CAUSEWAY, BLACKSHAW HEAD, HEBDEN BRIDGE, WEST YORKSHIRE, UNITED KINGDOM, HX7 7JB","postcode":"HX7 7JB"}},{"type":"Feature","geometry":{"type":"Point","coordinates":[-2.059436512005302,53.749348507234444]},"properties":{"name":"HEBDEN BRIDGE CAMPING COMPANY LIMITED","address":"7 HIGH STREET, BLACKSHAW HEAD, HEBDEN BRIDGE, WEST YORKSHIRE, UNITED KINGDOM, HX7 7HY","postcode":"HX7 7HY"}},{"type":"Feature","geometry":{"type":"Point","coordinates":[-2.04689050654939,53.73586655021128]},"properties":{"name":"HEBDEN BRIDGE CHIROPRACTIC LTD","address":"POTBALL, JUMBLE HOLE ROAD, HEBDEN BRIDGE, WEST YORKSHIRE, HX7 6PS","postcode":"HX7 6PS"}},{"type":"Feature","geometry":{"type":"Point","coordinates":[-2.0130846148488177,53.74257453579226]},"properties":{"name":"HEBDEN BRIDGE COMMUNITY ASSOCIATION LTD","address":"HEBDEN BRIDGE TOWN HALL, ST. GEORGES STREET, HEBDEN BRIDGE, WEST YORKSHIRE, HX7 7BY","postcode":"HX7 7BY"}},{"type":"Feature","geometry":{"type":"Point","coordinates":[-2.0111318971374756,53.74039650683828]},"properties":{"name":"HEBDEN BRIDGE DENTAL CARE LTD","address":"16 NEW ROAD, HEBDEN BRIDGE, WEST YORKSHIRE, HX7 8AD","postcode":"HX7 8AD"}},{"type":"Feature","geometry":{"type":"Point","coordinates":[-1.9972820701392293,53.756168614646406]},"properties":{"name":"HEBDEN BRIDGE EQUESTRIAN CENTRE LIMITED","address":"ALLSWELL FARM, WADSWORTH, HEBDEN BRIDGE, WEST YORKSHIRE, UNITED KINGDOM, HX7 8TF","postcode":"HX7 8TF"}},{"type":"Feature","geometry":{"type":"Point","coordinates":[-1.991664322387021,53.74114220427183]},"properties":{"name":"HEBDEN BRIDGE GOLF CLUB (2015) LIMITED","address":"GREAT MOUNT, WADSWORTH, HEBDEN BRIDGE, WEST YORKSHIRE, HX7 8PH","postcode":"HX7 8PH"}},{"type":"Feature","geometry":{"type":"Point","coordinates":[-1.991715972048224,53.741359072409026]},"properties":{"name":"HEBDEN BRIDGE GOLF CLUB LIMITED","address":"GREAT MOUNT, WADSWORTH, HEBDEN BRIDGE, WEST YORKSHIRE, HX7 8PH","postcode":"HX7 8PH"}},{"type":"Feature","geometry":{"type":"Point","coordinates":[-2.012508854619767,53.74374274669401]},"properties":{"name":"HEBDEN BRIDGE MASONIC HALL ASSOCIATION LIMITED","address":"THE MASONIC HALL, HANGINGROYD LANE, HEBDEN BRIDGE WEST YORKS, HX7 7DD","postcode":"HX7 7DD"}},{"type":"Feature","geometry":{"type":"Point","coordinates":[-2.017313053041947,53.740663379918495]},"properties":{"name":"HEBDEN BRIDGE PARTNERSHIP LTD","address":"2 HEBBLE END, HEBDEN BRIDGE, WEST YORKSHIRE, HX7 6HJ","postcode":"HX7 6HJ"}},{"type":"Feature","geometry":{"type":"Point","coordinates":[-2.0135462415150243,53.737991477371466]},"properties":{"name":"HEBDEN BRIDGE PATTERNS LIMITED","address":"PALACE HOUSE ROAD, HEBDEN BRIDGE, WEST YORKSHIRE, HX7 6HW","postcode":"HX7 6HW"}},{"type":"Feature","geometry":{"type":"Point","coordinates":[-2.014089138083265,53.74385556166855]},"properties":{"name":"HEBDEN BRIDGE PIANO FESTIVAL","address":"3 REGENT PLACE, HEBDEN BRIDGE, WEST YORKSHIRE, HX7 7DF","postcode":"HX7 7DF"}},{"type":"Feature","geometry":{"type":"Point","coordinates":[-2.0236844487993677,53.742707846119984]},"properties":{"name":"HEBDEN DATA SERVICES LIMITED","address":"14 COLDEN CLOSE, HEBDEN BRIDGE, WEST YORKSHIRE, UNITED KINGDOM, HX7 6DY","postcode":"HX7 6DY"}},{"type":"Feature","geometry":{"type":"Point","coordinates":[-2.0098420040080485,53.742486263668425]},"properties":{"name":"HEBDEN MANAGEMENT SOLUTIONS LIMITED","address":"9 CLIFFE STREET, HEBDEN BRIDGE, WEST YORKSHIRE, HX7 8BY","postcode":"HX7 8BY"}},{"type":"Feature","geometry":{"type":"Point","coordinates":[-2.0129556380551357,53.750140870032546]},"properties":{"name":"HEBDEN MILLS LIMITED","address":"BROOK LEIGH, LEE MILL ROAD, HEBDEN BRIDGE, WEST YORKSHIRE, HX7 7AB","postcode":"HX7 7AB"}},{"type":"Feature","geometry":{"type":"Point","coordinates":[-1.979678200337863,53.73668950811495]},"properties":{"name":"HEBDEN RENOVATION COMPANY LIMITED","address":"BANK COTTAGE, OFF RAW LANE, MYTHOLMROYD, HEBDEN BRIDGE, WEST YORKSHIRE, HX7 5RF","postcode":"HX7 5RF"}},{"type":"Feature","geometry":{"type":"Point","coordinates":[-2.0158116076566253,53.74166842729488]},"properties":{"name":"HEBDEN ROYD & DISTRICT SWIMMING POOL ASSOCIATION LIMITED","address":"BARCLAYS BANK CHAMBERS, MARKET STREET, HEBDEN BRIDGE, WEST YORKSHIRE, HX7 6AD","postcode":"HX7 6AD"}},{"type":"Feature","geometry":{"type":"Point","coordinates":[-2.0131961690581743,53.744188222613374]},"properties":{"name":"HEBDEN ROYD DEVELOPMENT LIMITED LIABILITY PARTNERSHIP","address":"LINDEN MILL, LINDEN ROAD, HEBDEN BRIDGE, WEST YORKSHIRE, HX7 7DP","postcode":"HX7 7DP"}},{"type":"Feature","geometry":{"type":"Point","coordinates":[-2.0158348272356217,53.74137252458166]},"properties":{"name":"HEBDEN ROYD SWIMMING POOL LIMITED","address":"BARCLAYS BANK CHAMBERS, MARKET STREET, HEBDEN BRIDGE, WEST YORKSHIRE, HX7 6AD","postcode":"HX7 6AD"}},{"type":"Feature","geometry":{"type":"Point","coordinates":[-2.0122561733358997,53.740262791347675]},"properties":{"name":"HEBDEN VALLEY IT SOLUTIONS LIMITED","address":"4 BUTLERS WHARF, NEW ROAD, HEBDEN BRIDGE, ENGLAND, HX7 8AF","postcode":"HX7 8AF"}},{"type":"Feature","geometry":{"type":"Point","coordinates":[-2.022175520985963,53.74110985985558]},"properties":{"name":"HEBDENSOFT LIMITED","address":"15 CAMBRIDGE STREET, HEBDEN BRIDGE, WEST YORKSHIRE, ENGLAND, HX7 6LN","postcode":"HX7 6LN"}},{"type":"Feature","geometry":{"type":"Point","coordinates":[-2.033527301790811,53.737183683227116]},"properties":{"name":"HEIGHT SAFETY FACILITIES LTD","address":"8 THISTLE BOTTOM, HEBDEN BRIDGE, WEST YORKSHIRE, UNITED KINGDOM, HX7 6NH","postcode":"HX7 6NH"}},{"type":"Feature","geometry":{"type":"Point","coordinates":[-1.9865640563160578,53.72941467359879]},"properties":{"name":"HENRY HELLIWELL LIMITED","address":"3 THRUSH HILL ROAD, MYTHOLMROYD, WEST YORKSHIRE, UNITED KINGDOM, HX7 5AQ","postcode":"HX7 5AQ"}},{"type":"Feature","geometry":{"type":"Point","coordinates":[-2.020326319943737,53.745556872790715]},"properties":{"name":"HEPTONSTALL ALLOTMENT & GARDEN SOCIETY LIMITED","address":"HEPTONSTALL SOCIAL & BOWLING CLUB ACRE LANE, HEPTONSTALL, HEBDEN BRIDGE, WEST YORKSHIRE, HX7 7LT","postcode":"HX7 7LT"}},{"type":"Feature","geometry":{"type":"Point","coordinates":[-2.017046437945683,53.74164631748793]},"properties":{"name":"HG1 PROPERTY SOLUTIONS LTD","address":"5 THE MILL, BRUNSWICK STREET, HEBDEN BRIDGE, WEST YORKSHIRE, HX7 6AF","postcode":"HX7 6AF"}},{"type":"Feature","geometry":{"type":"Point","coordinates":[-1.9826738994450126,53.730753082785604]},"properties":{"name":"HOBSON FAMILY BAKERS LTD","address":"17 BURNLEY ROAD, MYTHOLMROYD, HEBDEN BRIDGE, WEST YORKSHIRE, UNITED KINGDOM, HX7 5LH","postcode":"HX7 5LH"}},{"type":"Feature","geometry":{"type":"Point","coordinates":[-2.0128332908039024,53.743769087408126]},"properties":{"name":"HODGSON HEATING LIMITED","address":"BURLEES HOUSE, HANGINGROYD LANE, HEBDEN BRIDGE, WEST YORKSHIRE, HX7 7DD","postcode":"HX7 7DD"}},{"type":"Feature","geometry":{"type":"Point","coordinates":[-2.0156820687741863,53.74755506125933]},"properties":{"name":"HOLLINS MANAGEMENT LIMITED","address":"12 HOLLINS, HEBDEN BRIDGE, WEST YORKSHIRE, HX7 7DZ","postcode":"HX7 7DZ"}},{"type":"Feature","geometry":{"type":"Point","coordinates":[-1.9994635731342099,53.74032578954564]},"properties":{"name":"HOLME HOUSE PROPERTIES (HEBDEN BRIDGE) LIMITED","address":"STEPHENSON HOUSE, BURLEES LANE, HEBDEN BRIDGE, WEST YORKSHIRE, HX7 8PS","postcode":"HX7 8PS"}},{"type":"Feature","geometry":{"type":"Point","coordinates":[-2.011177410521443,53.747319042636114]},"properties":{"name":"HOLME STREET ARTS CENTRE LTD","address":"WOODVILLE, 6 KEIGHLEY ROAD, HEBDEN BRIDGE, WEST YORKSHIRE, HX7 8LL","postcode":"HX7 8LL"}},{"type":"Feature","geometry":{"type":"Point","coordinates":[-2.0159155283907126,53.74140989405711]},"properties":{"name":"HOLMES TEC LIMITED","address":"BARCLAYS BANK CHAMBERS, MARKET STREET, HEBDEN BRIDGE, WEST YORKSHIRE, HX7 6AD","postcode":"HX7 6AD"}},{"type":"Feature","geometry":{"type":"Point","coordinates":[-2.015241687349747,53.74591894412257]},"properties":{"name":"HOTTIES THERMAL PACKS LIMITED","address":"1 SLATER BANK, HEBDEN BRIDGE, WEST YORKSHIRE, HX7 7DY","postcode":"HX7 7DY"}},{"type":"Feature","geometry":{"type":"Point","coordinates":[-2.0156589606942,53.74106942559295]},"properties":{"name":"HOUR CAR (UN) LIMITED","address":"SALEM COMMUNITY CENTRE, CENTRAL STREET, HEBDEN BRIDGE, WEST YORKSHIRE, HX7 6HB","postcode":"HX7 6HB"}},{"type":"Feature","geometry":{"type":"Point","coordinates":[-1.9886381123450154,53.72469895452769]},"properties":{"name":"HOUSE OF PLANTS LIMITED(THE)","address":"HOO HOLE WORKS, CRAGG ROAD, MYTHOLMROYD, W YORKS, HX7 5JT","postcode":"HX7 5JT"}},{"type":"Feature","geometry":{"type":"Point","coordinates":[-1.9993432871950712,53.710709991815165]},"properties":{"name":"HOVERFLIES LIMITED","address":"UPPER LUMB BARN UPPER LUMB LANE, CRAGG VALE, HEBDEN BRIDGE, WEST YORKSHIRE, UNITED KINGDOM, HX7 5SH","postcode":"HX7 5SH"}},{"type":"Feature","geometry":{"type":"Point","coordinates":[-2.0171241066117678,53.74163453250962]},"properties":{"name":"HRR LIMITED","address":"5 THE MILL, BRUNSWICK STREET, HEBDEN BRIDGE, WEST YORKSHIRE, UNITED KINGDOM, HX7 6AF","postcode":"HX7 6AF"}},{"type":"Feature","geometry":{"type":"Point","coordinates":[-2.0172698121580326,53.740457455078946]},"properties":{"name":"I Q EQUITY LIMITED","address":"BEEHIVE MILLS, HEBBLE END, HEBDEN BRIDGE, WEST YORKSHIRE, UNITED KINGDOM, HX7 6HJ","postcode":"HX7 6HJ"}},{"type":"Feature","geometry":{"type":"Point","coordinates":[-2.02327163244269,53.74102561952648]},"properties":{"name":"IAN APPLEBY LTD","address":"11 TRINITY STREET, HEBDEN BRIDGE, HALIFAX, HX7 6LP","postcode":"HX7 6LP"}},{"type":"Feature","geometry":{"type":"Point","coordinates":[-2.0001049506887414,53.70518562782299]},"properties":{"name":"IAN LUMB GASHOLDERS LIMITED","address":"STONE HAVEN, CHURCH BANK, CRAGG VALE, HEBDEN BRIDGE, HX7 5TF","postcode":"HX7 5TF"}},{"type":"Feature","geometry":{"type":"Point","coordinates":[-2.013841388647274,53.74105609795396]},"properties":{"name":"IFONEZ LTD","address":"21A WEST END, HEBDEN BRIDGE, UNITED KINGDOM, HX7 8UQ","postcode":"HX7 8UQ"}},{"type":"Feature","geometry":{"type":"Point","coordinates":[-2.0121222953684494,53.74207339962171]},"properties":{"name":"IL MULINO (HEBDEN BRIDGE) LIMITED","address":"BRIDGE MILL, ST GEORGE'S SQUARE, HEBDEN BRIDGE, WEST YORKSHRIE, HX7 8ET","postcode":"HX7 8ET"}},{"type":"Feature","geometry":{"type":"Point","coordinates":[-2.0197543655996513,53.74133760739589]},"properties":{"name":"ILC LEARNING LIMITED","address":"95 BRIDGE LANES, BRIDGE LANES, HEBDEN BRIDGE, WEST YORKSHIRE, HX7 6AT","postcode":"HX7 6AT"}}]}